{
"type": "FeatureCollection",
"name": "WesternNCSchools",
"crs": { "type": "name", "properties": { "name": "urn:ogc:def:crs:OGC:1.3:CRS84" } },
"features": [
{ "type": "Feature", "properties": { "TYPE": "Public", "NAME": "Alleghany High", "STREET": "404 Trojan Avenue", "CITY": "Sparta", "ZIP": "28675", "NMCNTY": "Alleghany County", "TOTAL": "4", "LAT": 36.513676, "LON": -81.122745 }, "geometry": { "type": "Point", "coordinates": [ -81.122745, 36.513676 ] } },
{ "type": "Feature", "properties": { "TYPE": "Public", "NAME": "Glade Creek Elementary", "STREET": "32 Glade Creek Sch Road", "CITY": "Ennice", "ZIP": "28623", "NMCNTY": "Alleghany County", "TOTAL": "4", "LAT": 36.5004, "LON": -80.9798 }, "geometry": { "type": "Point", "coordinates": [ -80.9798, 36.5004 ] } },
{ "type": "Feature", "properties": { "TYPE": "Public", "NAME": "Piney Creek Elementary", "STREET": "559 Piney Creek Sch Road", "CITY": "Piney Creek", "ZIP": "28663", "NMCNTY": "Alleghany County", "TOTAL": "4", "LAT": 36.5482, "LON": -81.3039 }, "geometry": { "type": "Point", "coordinates": [ -81.3039, 36.5482 ] } },
{ "type": "Feature", "properties": { "TYPE": "Public", "NAME": "Sparta Elementary", "STREET": "450 N Main Street", "CITY": "Sparta", "ZIP": "28675", "NMCNTY": "Alleghany County", "TOTAL": "4", "LAT": 36.509879, "LON": -81.125518 }, "geometry": { "type": "Point", "coordinates": [ -81.125518, 36.509879 ] } },
{ "type": "Feature", "properties": { "TYPE": "Public", "NAME": "Blue Ridge Elementary", "STREET": "5778 NC Hwy 88 W", "CITY": "Warrensville", "ZIP": "28693", "NMCNTY": "Ashe County", "TOTAL": "6", "LAT": 36.4612, "LON": -81.5322 }, "geometry": { "type": "Point", "coordinates": [ -81.5322, 36.4612 ] } },
{ "type": "Feature", "properties": { "TYPE": "Public", "NAME": "Mountain View Elementary", "STREET": "2789 Hwy 221 N", "CITY": "Jefferson", "ZIP": "28640", "NMCNTY": "Ashe County", "TOTAL": "6", "LAT": 36.4338, "LON": -81.4432 }, "geometry": { "type": "Point", "coordinates": [ -81.4432, 36.4338 ] } },
{ "type": "Feature", "properties": { "TYPE": "Public", "NAME": "Ashe County High", "STREET": "184 Campus Drive", "CITY": "West Jefferson", "ZIP": "28694", "NMCNTY": "Ashe County", "TOTAL": "6", "LAT": 36.3925, "LON": -81.479 }, "geometry": { "type": "Point", "coordinates": [ -81.479, 36.3925 ] } },
{ "type": "Feature", "properties": { "TYPE": "Public", "NAME": "Ashe County Middle", "STREET": "255 Northwest Lane", "CITY": "Warrensville", "ZIP": "28693", "NMCNTY": "Ashe County", "TOTAL": "6", "LAT": 36.4643, "LON": -81.5101 }, "geometry": { "type": "Point", "coordinates": [ -81.5101, 36.4643 ] } },
{ "type": "Feature", "properties": { "TYPE": "Public", "NAME": "Westwood Elementary", "STREET": "4083 US Hwy 221S", "CITY": "West Jefferson", "ZIP": "28694", "NMCNTY": "Ashe County", "TOTAL": "6", "LAT": 36.3645, "LON": -81.5088 }, "geometry": { "type": "Point", "coordinates": [ -81.5088, 36.3645 ] } },
{ "type": "Feature", "properties": { "TYPE": "Public", "NAME": "Ashe County Early College High", "STREET": "363 Campus Dr", "CITY": "West Jefferson", "ZIP": "28694", "NMCNTY": "Ashe County", "TOTAL": "6", "LAT": 36.394244, "LON": -81.476089 }, "geometry": { "type": "Point", "coordinates": [ -81.476089, 36.394244 ] } },
{ "type": "Feature", "properties": { "TYPE": "Private", "NAME": "BETHEL CHRISTIAN ACADEMY", "STREET": "12021 US HIGHWAY 19E", "CITY": "SPRUCE PINE", "ZIP": "28777", "NMCNTY": "Avery County", "TOTAL": "15", "LAT": 35.935473, "LON": -82.008039 }, "geometry": { "type": "Point", "coordinates": [ -82.008039, 35.935473 ] } },
{ "type": "Feature", "properties": { "TYPE": "Private", "NAME": "RAINBOW CHRISTIAN ACADEMY", "STREET": "2265 BLEVINS CREEK RD", "CITY": "ELK PARK", "ZIP": "28622", "NMCNTY": "Avery County", "TOTAL": "15", "LAT": 36.14315, "LON": -81.94588 }, "geometry": { "type": "Point", "coordinates": [ -81.94588, 36.14315 ] } },
{ "type": "Feature", "properties": { "TYPE": "Public", "NAME": "Marjorie Williams Academy", "STREET": "129 Allen Circle", "CITY": "Crossnore", "ZIP": "28616", "NMCNTY": "Avery County", "TOTAL": "15", "LAT": 36.02508, "LON": -81.92835 }, "geometry": { "type": "Point", "coordinates": [ -81.92835, 36.02508 ] } },
{ "type": "Feature", "properties": { "TYPE": "Public", "NAME": "Avery County High", "STREET": "401 Avery County High School R", "CITY": "Newland", "ZIP": "28657", "NMCNTY": "Avery County", "TOTAL": "15", "LAT": 36.067608, "LON": -81.919724 }, "geometry": { "type": "Point", "coordinates": [ -81.919724, 36.067608 ] } },
{ "type": "Feature", "properties": { "TYPE": "Public", "NAME": "Banner Elk Elementary", "STREET": "155 Orchard Lane", "CITY": "Banner Elk", "ZIP": "28604", "NMCNTY": "Avery County", "TOTAL": "15", "LAT": 36.148912, "LON": -81.857786 }, "geometry": { "type": "Point", "coordinates": [ -81.857786, 36.148912 ] } },
{ "type": "Feature", "properties": { "TYPE": "Public", "NAME": "Crossnore Elementary", "STREET": "1000 Walt Clark Road", "CITY": "Crossnore", "ZIP": "28616", "NMCNTY": "Avery County", "TOTAL": "15", "LAT": 36.025771, "LON": -81.925502 }, "geometry": { "type": "Point", "coordinates": [ -81.925502, 36.025771 ] } },
{ "type": "Feature", "properties": { "TYPE": "Public", "NAME": "Avery Middle", "STREET": "102 Old Montezuma Road", "CITY": "Newland", "ZIP": "28657", "NMCNTY": "Avery County", "TOTAL": "15", "LAT": 36.067352, "LON": -81.91638 }, "geometry": { "type": "Point", "coordinates": [ -81.91638, 36.067352 ] } },
{ "type": "Feature", "properties": { "TYPE": "Public", "NAME": "Newland Elementary", "STREET": "750 Linville Street", "CITY": "Newland", "ZIP": "28657", "NMCNTY": "Avery County", "TOTAL": "15", "LAT": 36.081949, "LON": -81.922679 }, "geometry": { "type": "Point", "coordinates": [ -81.922679, 36.081949 ] } },
{ "type": "Feature", "properties": { "TYPE": "Public", "NAME": "Riverside Elementary", "STREET": "8020 US 19E Hwy South", "CITY": "Newland", "ZIP": "28657", "NMCNTY": "Avery County", "TOTAL": "15", "LAT": 35.989946, "LON": -82.019576 }, "geometry": { "type": "Point", "coordinates": [ -82.019576, 35.989946 ] } },
{ "type": "Feature", "properties": { "TYPE": "Public", "NAME": "Cranberry Middle", "STREET": "6230 North US Highway 19E", "CITY": "Elk Park", "ZIP": "28622", "NMCNTY": "Avery County", "TOTAL": "15", "LAT": 36.146328, "LON": -81.963873 }, "geometry": { "type": "Point", "coordinates": [ -81.963873, 36.146328 ] } },
{ "type": "Feature", "properties": { "TYPE": "Public", "NAME": "Freedom Trail Elementary", "STREET": "6110 North US Hwy 19E", "CITY": "Elk Park", "ZIP": "28622", "NMCNTY": "Avery County", "TOTAL": "15", "LAT": 36.146003, "LON": -81.963616 }, "geometry": { "type": "Point", "coordinates": [ -81.963616, 36.146003 ] } },
{ "type": "Feature", "properties": { "TYPE": "Public", "NAME": "Blue Ridge High School", "STREET": "76 Old Montezuma Rd", "CITY": "Newland", "ZIP": "28657", "NMCNTY": "Avery County", "TOTAL": "15", "LAT": 36.067639, "LON": -81.916107 }, "geometry": { "type": "Point", "coordinates": [ -81.916107, 36.067639 ] } },
{ "type": "Feature", "properties": { "TYPE": "Public", "NAME": "Mayland Early College", "STREET": "264 Mayland Dr", "CITY": "Spruce Pine", "ZIP": "28777", "NMCNTY": "Avery County", "TOTAL": "15", "LAT": 35.9344, "LON": -82.01683 }, "geometry": { "type": "Point", "coordinates": [ -82.01683, 35.9344 ] } },
{ "type": "Feature", "properties": { "TYPE": "PostSecondary", "NAME": "Lees-McRae College", "STREET": "191 Main Street", "CITY": "Banner Elk", "ZIP": "28604", "NMCNTY": "Avery County", "TOTAL": "15", "LAT": 36.162477, "LON": -81.873371 }, "geometry": { "type": "Point", "coordinates": [ -81.873371, 36.162477 ] } },
{ "type": "Feature", "properties": { "TYPE": "PostSecondary", "NAME": "Mayland Community College", "STREET": "200 Mayland Drive", "CITY": "Spruce Pine", "ZIP": "28777", "NMCNTY": "Avery County", "TOTAL": "15", "LAT": 35.934475, "LON": -82.016988 }, "geometry": { "type": "Point", "coordinates": [ -82.016988, 35.934475 ] } },
{ "type": "Feature", "properties": { "TYPE": "Private", "NAME": "ASHEVILLE CATHOLIC SCHOOL", "STREET": "12 CULVERN ST", "CITY": "ASHEVILLE", "ZIP": "28804", "NMCNTY": "Buncombe County", "TOTAL": "97", "LAT": 35.631201, "LON": -82.551782 }, "geometry": { "type": "Point", "coordinates": [ -82.551782, 35.631201 ] } },
{ "type": "Feature", "properties": { "TYPE": "Private", "NAME": "EMMANUEL LUTHERAN SCHOOL", "STREET": "51 WILBURN PL", "CITY": "ASHEVILLE", "ZIP": "28806", "NMCNTY": "Buncombe County", "TOTAL": "97", "LAT": 35.586039, "LON": -82.602633 }, "geometry": { "type": "Point", "coordinates": [ -82.602633, 35.586039 ] } },
{ "type": "Feature", "properties": { "TYPE": "Private", "NAME": "ASHEVILLE CHRISTIAN ACADEMY", "STREET": "74 RIVERWOOD RD", "CITY": "SWANNANOA", "ZIP": "28778", "NMCNTY": "Buncombe County", "TOTAL": "97", "LAT": 35.604755, "LON": -82.410884 }, "geometry": { "type": "Point", "coordinates": [ -82.410884, 35.604755 ] } },
{ "type": "Feature", "properties": { "TYPE": "Private", "NAME": "CAROLINA DAY SCHOOL", "STREET": "1345 HENDERSONVILLE RD", "CITY": "ASHEVILLE", "ZIP": "28803", "NMCNTY": "Buncombe County", "TOTAL": "97", "LAT": 35.524645, "LON": -82.531356 }, "geometry": { "type": "Point", "coordinates": [ -82.531356, 35.524645 ] } },
{ "type": "Feature", "properties": { "TYPE": "Private", "NAME": "ASHEVILLE-PISGAH CHRISTIAN SCHOOL", "STREET": "90 ACADEMY DR", "CITY": "CANDLER", "ZIP": "28715", "NMCNTY": "Buncombe County", "TOTAL": "97", "LAT": 35.568994, "LON": -82.668409 }, "geometry": { "type": "Point", "coordinates": [ -82.668409, 35.568994 ] } },
{ "type": "Feature", "properties": { "TYPE": "Private", "NAME": "MOUNT PISQAH ACADEMY", "STREET": "75 ACADEMY DR", "CITY": "CANDLER", "ZIP": "28715", "NMCNTY": "Buncombe County", "TOTAL": "97", "LAT": 35.569477, "LON": -82.67043 }, "geometry": { "type": "Point", "coordinates": [ -82.67043, 35.569477 ] } },
{ "type": "Feature", "properties": { "TYPE": "Private", "NAME": "TEMPLE BAPTIST SCHOOL", "STREET": "76 HAWKINS LN", "CITY": "ASHEVILLE", "ZIP": "28806", "NMCNTY": "Buncombe County", "TOTAL": "97", "LAT": 35.588045, "LON": -82.590261 }, "geometry": { "type": "Point", "coordinates": [ -82.590261, 35.588045 ] } },
{ "type": "Feature", "properties": { "TYPE": "Private", "NAME": "HANGER HALL SCHOOL", "STREET": "64 WT WEAVER BLVD", "CITY": "ASHEVILLE", "ZIP": "28804", "NMCNTY": "Buncombe County", "TOTAL": "97", "LAT": 35.614471, "LON": -82.557862 }, "geometry": { "type": "Point", "coordinates": [ -82.557862, 35.614471 ] } },
{ "type": "Feature", "properties": { "TYPE": "Private", "NAME": "1 SCHOOL RD", "STREET": "1 SCHOOL RD", "CITY": "ASHEVILLE", "ZIP": "28806", "NMCNTY": "Buncombe County", "TOTAL": "97", "LAT": 35.574158, "LON": -82.613884 }, "geometry": { "type": "Point", "coordinates": [ -82.613884, 35.574158 ] } },
{ "type": "Feature", "properties": { "TYPE": "Private", "NAME": "REYNOLDS MOUNTAIN CHRISTIAN ACADENY", "STREET": "20 REYNOLDS MOUNTAIN BLVD", "CITY": "ASHEVILLE", "ZIP": "28804", "NMCNTY": "Buncombe County", "TOTAL": "97", "LAT": 35.647713, "LON": -82.576816 }, "geometry": { "type": "Point", "coordinates": [ -82.576816, 35.647713 ] } },
{ "type": "Feature", "properties": { "TYPE": "Private", "NAME": "ASHEVILLE SCHOOL", "STREET": "360 ASHEVILLE SCHOOL RD", "CITY": "ASHEVILLE", "ZIP": "28806", "NMCNTY": "Buncombe County", "TOTAL": "97", "LAT": 35.566278, "LON": -82.623287 }, "geometry": { "type": "Point", "coordinates": [ -82.623287, 35.566278 ] } },
{ "type": "Feature", "properties": { "TYPE": "Private", "NAME": "ELIADA ACADEMY", "STREET": "2 COMPTON DR", "CITY": "ASHEVILLE", "ZIP": "28806", "NMCNTY": "Buncombe County", "TOTAL": "97", "LAT": 35.600832, "LON": -82.618163 }, "geometry": { "type": "Point", "coordinates": [ -82.618163, 35.600832 ] } },
{ "type": "Feature", "properties": { "TYPE": "Private", "NAME": "CHRIST SCHOOL", "STREET": "500 CHRIST SCHOOL RD", "CITY": "ARDEN", "ZIP": "28704", "NMCNTY": "Buncombe County", "TOTAL": "97", "LAT": 35.465246, "LON": -82.487702 }, "geometry": { "type": "Point", "coordinates": [ -82.487702, 35.465246 ] } },
{ "type": "Feature", "properties": { "TYPE": "Private", "NAME": "BLACK MOUNTAIN MONTESSORI", "STREET": "101 CARVER AVE", "CITY": "BLACK MTN", "ZIP": "28711", "NMCNTY": "Buncombe County", "TOTAL": "97", "LAT": 35.615386, "LON": -82.34002 }, "geometry": { "type": "Point", "coordinates": [ -82.34002, 35.615386 ] } },
{ "type": "Feature", "properties": { "TYPE": "Private", "NAME": "THE NEW CLASSICAL ACADEMY", "STREET": "671 SAND HILL RD", "CITY": "ASHEVILLE", "ZIP": "28806", "NMCNTY": "Buncombe County", "TOTAL": "97", "LAT": 35.562199, "LON": -82.615087 }, "geometry": { "type": "Point", "coordinates": [ -82.615087, 35.562199 ] } },
{ "type": "Feature", "properties": { "TYPE": "Private", "NAME": "ODYSSEY COMMUNITY SCHOOL", "STREET": "90 ZILLICOA ST", "CITY": "ASHEVILLE", "ZIP": "28801", "NMCNTY": "Buncombe County", "TOTAL": "97", "LAT": 35.610448, "LON": -82.567548 }, "geometry": { "type": "Point", "coordinates": [ -82.567548, 35.610448 ] } },
{ "type": "Feature", "properties": { "TYPE": "Private", "NAME": "FRENCH BROAD RIVER ACADEMY-GIRLS CAMPUS", "STREET": "1420 RIVERSIDE DR", "CITY": "ASHEVILLE", "ZIP": "28804", "NMCNTY": "Buncombe County", "TOTAL": "97", "LAT": 35.62569, "LON": -82.600481 }, "geometry": { "type": "Point", "coordinates": [ -82.600481, 35.62569 ] } },
{ "type": "Feature", "properties": { "TYPE": "Private", "NAME": "ASHEVILLE WALDORF SCHOOL", "STREET": "531 HAYWOOD RD", "CITY": "ASHEVILLE", "ZIP": "28806", "NMCNTY": "Buncombe County", "TOTAL": "97", "LAT": 35.57898, "LON": -82.585201 }, "geometry": { "type": "Point", "coordinates": [ -82.585201, 35.57898 ] } },
{ "type": "Feature", "properties": { "TYPE": "Private", "NAME": "RAINBOW COMMUNITY SCHOOL", "STREET": "574 HAYWOOD RD", "CITY": "ASHEVILLE", "ZIP": "28806", "NMCNTY": "Buncombe County", "TOTAL": "97", "LAT": 35.578169, "LON": -82.586833 }, "geometry": { "type": "Point", "coordinates": [ -82.586833, 35.578169 ] } },
{ "type": "Feature", "properties": { "TYPE": "Private", "NAME": "ASHEVILLE MONTESSORI SCHOOL", "STREET": "360 WEAVERVILLE RD", "CITY": "ASHEVILLE", "ZIP": "28804", "NMCNTY": "Buncombe County", "TOTAL": "97", "LAT": 35.662193, "LON": -82.582727 }, "geometry": { "type": "Point", "coordinates": [ -82.582727, 35.662193 ] } },
{ "type": "Feature", "properties": { "TYPE": "Private", "NAME": "TIMBERSONG ACADEMY", "STREET": "531 UPPER FLAT CREEK RD", "CITY": "WEAVERVILLE", "ZIP": "28787", "NMCNTY": "Buncombe County", "TOTAL": "97", "LAT": 35.747784, "LON": -82.507955 }, "geometry": { "type": "Point", "coordinates": [ -82.507955, 35.747784 ] } },
{ "type": "Feature", "properties": { "TYPE": "Private", "NAME": "FRENCH BROAD RIVER ACADEMY-BOYS", "STREET": "1900 RIVERSIDE DR", "CITY": "ASHEVILLE", "ZIP": "28804", "NMCNTY": "Buncombe County", "TOTAL": "97", "LAT": 35.635447, "LON": -82.598871 }, "geometry": { "type": "Point", "coordinates": [ -82.598871, 35.635447 ] } },
{ "type": "Feature", "properties": { "TYPE": "Private", "NAME": "CANTERBURY CLASSICAL SCHOOL", "STREET": "718 HAYWOOD RD", "CITY": "ASHEVILLE", "ZIP": "28806", "NMCNTY": "Buncombe County", "TOTAL": "97", "LAT": 35.577063, "LON": -82.592361 }, "geometry": { "type": "Point", "coordinates": [ -82.592361, 35.577063 ] } },
{ "type": "Feature", "properties": { "TYPE": "Private", "NAME": "THE GOODALE SCHOOL", "STREET": "75 ZILLICOA ST", "CITY": "ASHEVILLE", "ZIP": "28801", "NMCNTY": "Buncombe County", "TOTAL": "97", "LAT": 35.60994, "LON": -82.568491 }, "geometry": { "type": "Point", "coordinates": [ -82.568491, 35.60994 ] } },
{ "type": "Feature", "properties": { "TYPE": "Private", "NAME": "ASHEVILLE ACADEMY", "STREET": "126 CAMP ELLIOTT RD", "CITY": "BLACK MOUNTAIN", "ZIP": "28711", "NMCNTY": "Buncombe County", "TOTAL": "97", "LAT": 35.52561, "LON": -82.203971 }, "geometry": { "type": "Point", "coordinates": [ -82.203971, 35.52561 ] } },
{ "type": "Feature", "properties": { "TYPE": "Private", "NAME": "HAWTHORN MONTESSORI SCHOOL", "STREET": "871 RIVERSIDE DR", "CITY": "ASHEVILLE", "ZIP": "28804", "NMCNTY": "Buncombe County", "TOTAL": "97", "LAT": 35.61948, "LON": -82.574861 }, "geometry": { "type": "Point", "coordinates": [ -82.574861, 35.61948 ] } },
{ "type": "Feature", "properties": { "TYPE": "Private", "NAME": "TRINITY OF FAIRVIEW ACADEMY", "STREET": "646 CONCORD RD", "CITY": "FLETCHER", "ZIP": "28732", "NMCNTY": "Buncombe County", "TOTAL": "97", "LAT": 35.487243, "LON": -82.456079 }, "geometry": { "type": "Point", "coordinates": [ -82.456079, 35.487243 ] } },
{ "type": "Feature", "properties": { "TYPE": "Private", "NAME": "THE LEARNING COMMUNITY SCHOOL", "STREET": "1220 BEE TREE RD", "CITY": "SWANNANOA", "ZIP": "28778", "NMCNTY": "Buncombe County", "TOTAL": "97", "LAT": 35.63304, "LON": -82.406525 }, "geometry": { "type": "Point", "coordinates": [ -82.406525, 35.63304 ] } },
{ "type": "Feature", "properties": { "TYPE": "Private", "NAME": "JULIA STREET MONTESSORI SCHOOL", "STREET": "15 JULIA ST", "CITY": "ASHEVILLE", "ZIP": "28801", "NMCNTY": "Buncombe County", "TOTAL": "97", "LAT": 35.6079, "LON": -82.551661 }, "geometry": { "type": "Point", "coordinates": [ -82.551661, 35.6079 ] } },
{ "type": "Feature", "properties": { "TYPE": "Public", "NAME": "Francine Delany New School", "STREET": "119 Brevard Road", "CITY": "Asheville", "ZIP": "28806", "NMCNTY": "Buncombe County", "TOTAL": "97", "LAT": 35.5736, "LON": -82.5942 }, "geometry": { "type": "Point", "coordinates": [ -82.5942, 35.5736 ] } },
{ "type": "Feature", "properties": { "TYPE": "Public", "NAME": "Evergreen Community Charter", "STREET": "50 Bell Road", "CITY": "Asheville", "ZIP": "28805", "NMCNTY": "Buncombe County", "TOTAL": "97", "LAT": 35.6031, "LON": -82.4988 }, "geometry": { "type": "Point", "coordinates": [ -82.4988, 35.6031 ] } },
{ "type": "Feature", "properties": { "TYPE": "Public", "NAME": "ArtSpace Charter School", "STREET": "2030 US Hwy 70", "CITY": "Swannanoa", "ZIP": "28778", "NMCNTY": "Buncombe County", "TOTAL": "97", "LAT": 35.5947, "LON": -82.4287 }, "geometry": { "type": "Point", "coordinates": [ -82.4287, 35.5947 ] } },
{ "type": "Feature", "properties": { "TYPE": "Public", "NAME": "Asheville High", "STREET": "419 McDowell Street", "CITY": "Asheville", "ZIP": "28803", "NMCNTY": "Buncombe County", "TOTAL": "97", "LAT": 35.5729, "LON": -82.5531 }, "geometry": { "type": "Point", "coordinates": [ -82.5531, 35.5729 ] } },
{ "type": "Feature", "properties": { "TYPE": "Public", "NAME": "Hall Fletcher Elementary", "STREET": "60 Ridgelawn Road", "CITY": "Asheville", "ZIP": "28806", "NMCNTY": "Buncombe County", "TOTAL": "97", "LAT": 35.5746, "LON": -82.5741 }, "geometry": { "type": "Point", "coordinates": [ -82.5741, 35.5746 ] } },
{ "type": "Feature", "properties": { "TYPE": "Public", "NAME": "Claxton Elementary", "STREET": "241 Merrimon Avenue", "CITY": "Asheville", "ZIP": "28801", "NMCNTY": "Buncombe County", "TOTAL": "97", "LAT": 35.6078, "LON": -82.5532 }, "geometry": { "type": "Point", "coordinates": [ -82.5532, 35.6078 ] } },
{ "type": "Feature", "properties": { "TYPE": "Public", "NAME": "Ira B Jones Elementary", "STREET": "544 Kimberly Avenue", "CITY": "Asheville", "ZIP": "28804", "NMCNTY": "Buncombe County", "TOTAL": "97", "LAT": 35.6304, "LON": -82.5496 }, "geometry": { "type": "Point", "coordinates": [ -82.5496, 35.6304 ] } },
{ "type": "Feature", "properties": { "TYPE": "Public", "NAME": "Asheville Middle", "STREET": "211 S French Broad Avenue", "CITY": "Asheville", "ZIP": "28801", "NMCNTY": "Buncombe County", "TOTAL": "97", "LAT": 35.586731, "LON": -82.560101 }, "geometry": { "type": "Point", "coordinates": [ -82.560101, 35.586731 ] } },
{ "type": "Feature", "properties": { "TYPE": "Public", "NAME": "Lucy S. Herring Elementary", "STREET": "98 Sulphur Springs Road", "CITY": "Asheville", "ZIP": "28806", "NMCNTY": "Buncombe County", "TOTAL": "97", "LAT": 35.577512, "LON": -82.601098 }, "geometry": { "type": "Point", "coordinates": [ -82.601098, 35.577512 ] } },
{ "type": "Feature", "properties": { "TYPE": "Public", "NAME": "Isaac Dickson Elementary", "STREET": "125 Hill Street", "CITY": "Asheville", "ZIP": "28801", "NMCNTY": "Buncombe County", "TOTAL": "97", "LAT": 35.595464, "LON": -82.564832 }, "geometry": { "type": "Point", "coordinates": [ -82.564832, 35.595464 ] } },
{ "type": "Feature", "properties": { "TYPE": "Public", "NAME": "School of Inquiry and Life Sciences", "STREET": "419 McDowell Street", "CITY": "Asheville", "ZIP": "28803", "NMCNTY": "Buncombe County", "TOTAL": "97", "LAT": 35.5727, "LON": -82.5523 }, "geometry": { "type": "Point", "coordinates": [ -82.5523, 35.5727 ] } },
{ "type": "Feature", "properties": { "TYPE": "Public", "NAME": "Montford North Star Academy", "STREET": "90 Montford Ave", "CITY": "Asheville", "ZIP": "28801", "NMCNTY": "Buncombe County", "TOTAL": "97", "LAT": 35.597998, "LON": -82.561145 }, "geometry": { "type": "Point", "coordinates": [ -82.561145, 35.597998 ] } },
{ "type": "Feature", "properties": { "TYPE": "Public", "NAME": "Asheville Primary", "STREET": "441 Haywood Rd", "CITY": "Asheville", "ZIP": "28806", "NMCNTY": "Buncombe County", "TOTAL": "97", "LAT": 35.578284, "LON": -82.581575 }, "geometry": { "type": "Point", "coordinates": [ -82.581575, 35.578284 ] } },
{ "type": "Feature", "properties": { "TYPE": "Public", "NAME": "The Franklin School of Innovation", "STREET": "21 Innovation Dr", "CITY": "Asheville", "ZIP": "28806", "NMCNTY": "Buncombe County", "TOTAL": "97", "LAT": 35.541856, "LON": -82.630649 }, "geometry": { "type": "Point", "coordinates": [ -82.630649, 35.541856 ] } },
{ "type": "Feature", "properties": { "TYPE": "Public", "NAME": "IC Imagine", "STREET": "110 Champion Way", "CITY": "Asheville", "ZIP": "28806", "NMCNTY": "Buncombe County", "TOTAL": "97", "LAT": 35.546277, "LON": -82.613613 }, "geometry": { "type": "Point", "coordinates": [ -82.613613, 35.546277 ] } },
{ "type": "Feature", "properties": { "TYPE": "Public", "NAME": "Reynolds High", "STREET": "1 Rocket Drive", "CITY": "Asheville", "ZIP": "28803", "NMCNTY": "Buncombe County", "TOTAL": "97", "LAT": 35.5468, "LON": -82.4771 }, "geometry": { "type": "Point", "coordinates": [ -82.4771, 35.5468 ] } },
{ "type": "Feature", "properties": { "TYPE": "Public", "NAME": "Reynolds Middle", "STREET": "2 Rocket Drive", "CITY": "Asheville", "ZIP": "28803", "NMCNTY": "Buncombe County", "TOTAL": "97", "LAT": 35.548793, "LON": -82.477639 }, "geometry": { "type": "Point", "coordinates": [ -82.477639, 35.548793 ] } },
{ "type": "Feature", "properties": { "TYPE": "Public", "NAME": "Black Mountain Primary", "STREET": "301 East State Street", "CITY": "Black Mountain", "ZIP": "28711", "NMCNTY": "Buncombe County", "TOTAL": "97", "LAT": 35.6207, "LON": -82.318 }, "geometry": { "type": "Point", "coordinates": [ -82.318, 35.6207 ] } },
{ "type": "Feature", "properties": { "TYPE": "Public", "NAME": "Bell Elementary", "STREET": "90 Maple Springs Road", "CITY": "Asheville", "ZIP": "28805", "NMCNTY": "Buncombe County", "TOTAL": "97", "LAT": 35.589707, "LON": -82.492597 }, "geometry": { "type": "Point", "coordinates": [ -82.492597, 35.589707 ] } },
{ "type": "Feature", "properties": { "TYPE": "Public", "NAME": "Candler Elementary", "STREET": "121 Candler School Road", "CITY": "Candler", "ZIP": "28715", "NMCNTY": "Buncombe County", "TOTAL": "97", "LAT": 35.5382, "LON": -82.7001 }, "geometry": { "type": "Point", "coordinates": [ -82.7001, 35.5382 ] } },
{ "type": "Feature", "properties": { "TYPE": "Public", "NAME": "Owen High", "STREET": "99 Lake Eden Road", "CITY": "Black Mountain", "ZIP": "28711", "NMCNTY": "Buncombe County", "TOTAL": "97", "LAT": 35.6189, "LON": -82.3737 }, "geometry": { "type": "Point", "coordinates": [ -82.3737, 35.6189 ] } },
{ "type": "Feature", "properties": { "TYPE": "Public", "NAME": "Erwin High", "STREET": "60 Lees Creek Road", "CITY": "Asheville", "ZIP": "28806", "NMCNTY": "Buncombe County", "TOTAL": "97", "LAT": 35.6195, "LON": -82.6264 }, "geometry": { "type": "Point", "coordinates": [ -82.6264, 35.6195 ] } },
{ "type": "Feature", "properties": { "TYPE": "Public", "NAME": "Erwin Middle", "STREET": "20 Erwin Hills Road", "CITY": "Asheville", "ZIP": "28806", "NMCNTY": "Buncombe County", "TOTAL": "97", "LAT": 35.6182, "LON": -82.6296 }, "geometry": { "type": "Point", "coordinates": [ -82.6296, 35.6182 ] } },
{ "type": "Feature", "properties": { "TYPE": "Public", "NAME": "Emma Elementary", "STREET": "37 Brickyard Road", "CITY": "Asheville", "ZIP": "28806", "NMCNTY": "Buncombe County", "TOTAL": "97", "LAT": 35.5982, "LON": -82.5919 }, "geometry": { "type": "Point", "coordinates": [ -82.5919, 35.5982 ] } },
{ "type": "Feature", "properties": { "TYPE": "Public", "NAME": "Enka High", "STREET": "475 Enka Lake Road", "CITY": "Candler", "ZIP": "28715", "NMCNTY": "Buncombe County", "TOTAL": "97", "LAT": 35.5297, "LON": -82.6658 }, "geometry": { "type": "Point", "coordinates": [ -82.6658, 35.5297 ] } },
{ "type": "Feature", "properties": { "TYPE": "Public", "NAME": "Fairview Elementary", "STREET": "1355 Charlotte Hwy", "CITY": "Fairview", "ZIP": "28730", "NMCNTY": "Buncombe County", "TOTAL": "97", "LAT": 35.5227, "LON": -82.411 }, "geometry": { "type": "Point", "coordinates": [ -82.411, 35.5227 ] } },
{ "type": "Feature", "properties": { "TYPE": "Public", "NAME": "Glen Arden Elementary", "STREET": "50 Pinehurst Circle", "CITY": "Arden", "ZIP": "28704", "NMCNTY": "Buncombe County", "TOTAL": "97", "LAT": 35.4697, "LON": -82.4971 }, "geometry": { "type": "Point", "coordinates": [ -82.4971, 35.4697 ] } },
{ "type": "Feature", "properties": { "TYPE": "Public", "NAME": "Haw Creek Elementary", "STREET": "10 Bethesda Road", "CITY": "Asheville", "ZIP": "28805", "NMCNTY": "Buncombe County", "TOTAL": "97", "LAT": 35.59482, "LON": -82.505391 }, "geometry": { "type": "Point", "coordinates": [ -82.505391, 35.59482 ] } },
{ "type": "Feature", "properties": { "TYPE": "Public", "NAME": "Johnston Elementary", "STREET": "230 Johnston Boulevard", "CITY": "Asheville", "ZIP": "28806", "NMCNTY": "Buncombe County", "TOTAL": "97", "LAT": 35.5866, "LON": -82.62 }, "geometry": { "type": "Point", "coordinates": [ -82.62, 35.5866 ] } },
{ "type": "Feature", "properties": { "TYPE": "Public", "NAME": "Leicester Elementary", "STREET": "31 Gilbert Road", "CITY": "Leicester", "ZIP": "28748", "NMCNTY": "Buncombe County", "TOTAL": "97", "LAT": 35.6589, "LON": -82.7071 }, "geometry": { "type": "Point", "coordinates": [ -82.7071, 35.6589 ] } },
{ "type": "Feature", "properties": { "TYPE": "Public", "NAME": "North Buncombe High", "STREET": "890 Clarks Chapel Road", "CITY": "Weaverville", "ZIP": "28787", "NMCNTY": "Buncombe County", "TOTAL": "97", "LAT": 35.7397, "LON": -82.5576 }, "geometry": { "type": "Point", "coordinates": [ -82.5576, 35.7397 ] } },
{ "type": "Feature", "properties": { "TYPE": "Public", "NAME": "Oakley Elementary", "STREET": "753 Fairview Road", "CITY": "Asheville", "ZIP": "28803", "NMCNTY": "Buncombe County", "TOTAL": "97", "LAT": 35.5642, "LON": -82.5125 }, "geometry": { "type": "Point", "coordinates": [ -82.5125, 35.5642 ] } },
{ "type": "Feature", "properties": { "TYPE": "Public", "NAME": "Pisgah Elementary", "STREET": "1495 Pisgah Hwy", "CITY": "Candler", "ZIP": "28715", "NMCNTY": "Buncombe County", "TOTAL": "97", "LAT": 35.5038, "LON": -82.7316 }, "geometry": { "type": "Point", "coordinates": [ -82.7316, 35.5038 ] } },
{ "type": "Feature", "properties": { "TYPE": "Public", "NAME": "Enka Middle", "STREET": "390 Asbury Road", "CITY": "Candler", "ZIP": "28715", "NMCNTY": "Buncombe County", "TOTAL": "97", "LAT": 35.5522, "LON": -82.6647 }, "geometry": { "type": "Point", "coordinates": [ -82.6647, 35.5522 ] } },
{ "type": "Feature", "properties": { "TYPE": "Public", "NAME": "Williams Elementary", "STREET": "161 Bee Tree Road", "CITY": "Swannanoa", "ZIP": "28778", "NMCNTY": "Buncombe County", "TOTAL": "97", "LAT": 35.6042, "LON": -82.4029 }, "geometry": { "type": "Point", "coordinates": [ -82.4029, 35.6042 ] } },
{ "type": "Feature", "properties": { "TYPE": "Public", "NAME": "Roberson High", "STREET": "250 Overlook Road", "CITY": "Asheville", "ZIP": "28803", "NMCNTY": "Buncombe County", "TOTAL": "97", "LAT": 35.4859, "LON": -82.5351 }, "geometry": { "type": "Point", "coordinates": [ -82.5351, 35.4859 ] } },
{ "type": "Feature", "properties": { "TYPE": "Public", "NAME": "Valley Springs Middle", "STREET": "224 Long Shoals Road", "CITY": "Arden", "ZIP": "28704", "NMCNTY": "Buncombe County", "TOTAL": "97", "LAT": 35.4847, "LON": -82.5415 }, "geometry": { "type": "Point", "coordinates": [ -82.5415, 35.4847 ] } },
{ "type": "Feature", "properties": { "TYPE": "Public", "NAME": "Weaverville Elementary", "STREET": "129 S Main Street", "CITY": "Weaverville", "ZIP": "28787", "NMCNTY": "Buncombe County", "TOTAL": "97", "LAT": 35.6896, "LON": -82.5628 }, "geometry": { "type": "Point", "coordinates": [ -82.5628, 35.6896 ] } },
{ "type": "Feature", "properties": { "TYPE": "Public", "NAME": "Weaverville Primary", "STREET": "39 S Main Street", "CITY": "Weaverville", "ZIP": "28787", "NMCNTY": "Buncombe County", "TOTAL": "97", "LAT": 35.6948, "LON": -82.5609 }, "geometry": { "type": "Point", "coordinates": [ -82.5609, 35.6948 ] } },
{ "type": "Feature", "properties": { "TYPE": "Public", "NAME": "West Buncombe Elementary", "STREET": "175 Erwin Hills Road", "CITY": "Asheville", "ZIP": "28806", "NMCNTY": "Buncombe County", "TOTAL": "97", "LAT": 35.6176, "LON": -82.6215 }, "geometry": { "type": "Point", "coordinates": [ -82.6215, 35.6176 ] } },
{ "type": "Feature", "properties": { "TYPE": "Public", "NAME": "Woodfin Elementary", "STREET": "108 Elk Mountain Road", "CITY": "Asheville", "ZIP": "28804", "NMCNTY": "Buncombe County", "TOTAL": "97", "LAT": 35.6324, "LON": -82.5852 }, "geometry": { "type": "Point", "coordinates": [ -82.5852, 35.6324 ] } },
{ "type": "Feature", "properties": { "TYPE": "Public", "NAME": "Sand Hill-Venable Elem", "STREET": "154 Sand Hill School Road", "CITY": "Asheville", "ZIP": "28806", "NMCNTY": "Buncombe County", "TOTAL": "97", "LAT": 35.5543, "LON": -82.64 }, "geometry": { "type": "Point", "coordinates": [ -82.64, 35.5543 ] } },
{ "type": "Feature", "properties": { "TYPE": "Public", "NAME": "Barnardsville Elementary", "STREET": "20 Hillcrest Drive", "CITY": "Barnardsville", "ZIP": "28709", "NMCNTY": "Buncombe County", "TOTAL": "97", "LAT": 35.7753, "LON": -82.46 }, "geometry": { "type": "Point", "coordinates": [ -82.46, 35.7753 ] } },
{ "type": "Feature", "properties": { "TYPE": "Public", "NAME": "Black Mountain Elementary", "STREET": "100 Flat Creek Road", "CITY": "Black Mountain", "ZIP": "28711", "NMCNTY": "Buncombe County", "TOTAL": "97", "LAT": 35.622057, "LON": -82.314396 }, "geometry": { "type": "Point", "coordinates": [ -82.314396, 35.622057 ] } },
{ "type": "Feature", "properties": { "TYPE": "Public", "NAME": "Avery's Creek Elementary", "STREET": "15 Park South Boulevard", "CITY": "Arden", "ZIP": "28704", "NMCNTY": "Buncombe County", "TOTAL": "97", "LAT": 35.4776, "LON": -82.5792 }, "geometry": { "type": "Point", "coordinates": [ -82.5792, 35.4776 ] } },
{ "type": "Feature", "properties": { "TYPE": "Public", "NAME": "Estes Elementary", "STREET": "275 Overlook Road", "CITY": "Asheville", "ZIP": "28803", "NMCNTY": "Buncombe County", "TOTAL": "97", "LAT": 35.4879, "LON": -82.5401 }, "geometry": { "type": "Point", "coordinates": [ -82.5401, 35.4879 ] } },
{ "type": "Feature", "properties": { "TYPE": "Public", "NAME": "North Buncombe Middle", "STREET": "51 N Buncombe School Road", "CITY": "Weaverville", "ZIP": "28787", "NMCNTY": "Buncombe County", "TOTAL": "97", "LAT": 35.7159, "LON": -82.5582 }, "geometry": { "type": "Point", "coordinates": [ -82.5582, 35.7159 ] } },
{ "type": "Feature", "properties": { "TYPE": "Public", "NAME": "Community High School", "STREET": "235 Old US 70", "CITY": "Swannanoa", "ZIP": "28778", "NMCNTY": "Buncombe County", "TOTAL": "97", "LAT": 35.6028, "LON": -82.4042 }, "geometry": { "type": "Point", "coordinates": [ -82.4042, 35.6028 ] } },
{ "type": "Feature", "properties": { "TYPE": "Public", "NAME": "North Buncombe Elementary", "STREET": "251 Flat Creek Church Rd", "CITY": "Weaverville", "ZIP": "28787", "NMCNTY": "Buncombe County", "TOTAL": "97", "LAT": 35.7457, "LON": -82.568 }, "geometry": { "type": "Point", "coordinates": [ -82.568, 35.7457 ] } },
{ "type": "Feature", "properties": { "TYPE": "Public", "NAME": "Owen Middle", "STREET": "730 Old US 70", "CITY": "Swannanoa", "ZIP": "28778", "NMCNTY": "Buncombe County", "TOTAL": "97", "LAT": 35.607, "LON": -82.3751 }, "geometry": { "type": "Point", "coordinates": [ -82.3751, 35.607 ] } },
{ "type": "Feature", "properties": { "TYPE": "Public", "NAME": "Cane Creek Middle", "STREET": "570 Lower Brush Creek Road", "CITY": "Fletcher", "ZIP": "28732", "NMCNTY": "Buncombe County", "TOTAL": "97", "LAT": 35.4845, "LON": -82.4336 }, "geometry": { "type": "Point", "coordinates": [ -82.4336, 35.4845 ] } },
{ "type": "Feature", "properties": { "TYPE": "Public", "NAME": "Hominy Valley Elementary", "STREET": "450 Enka Lake Road", "CITY": "Candler", "ZIP": "28715", "NMCNTY": "Buncombe County", "TOTAL": "97", "LAT": 35.5345, "LON": -82.6643 }, "geometry": { "type": "Point", "coordinates": [ -82.6643, 35.5345 ] } },
{ "type": "Feature", "properties": { "TYPE": "Public", "NAME": "North Windy Ridge Intermediate", "STREET": "20 Doan Road", "CITY": "Weaverville", "ZIP": "28787", "NMCNTY": "Buncombe County", "TOTAL": "97", "LAT": 35.7259, "LON": -82.5515 }, "geometry": { "type": "Point", "coordinates": [ -82.5515, 35.7259 ] } },
{ "type": "Feature", "properties": { "TYPE": "Public", "NAME": "Early College", "STREET": "340 Victoria Road", "CITY": "Asheville", "ZIP": "28801", "NMCNTY": "Buncombe County", "TOTAL": "97", "LAT": 35.5707, "LON": -82.556 }, "geometry": { "type": "Point", "coordinates": [ -82.556, 35.5707 ] } },
{ "type": "Feature", "properties": { "TYPE": "Public", "NAME": "Middle College", "STREET": "340 Victoria Road", "CITY": "Asheville", "ZIP": "28801", "NMCNTY": "Buncombe County", "TOTAL": "97", "LAT": 35.5705, "LON": -82.556 }, "geometry": { "type": "Point", "coordinates": [ -82.556, 35.5705 ] } },
{ "type": "Feature", "properties": { "TYPE": "Public", "NAME": "Koontz Intermediate", "STREET": "305 Overlook Road", "CITY": "Asheville", "ZIP": "28803", "NMCNTY": "Buncombe County", "TOTAL": "97", "LAT": 35.484, "LON": -82.5398 }, "geometry": { "type": "Point", "coordinates": [ -82.5398, 35.484 ] } },
{ "type": "Feature", "properties": { "TYPE": "Public", "NAME": "Eblen Intermediate", "STREET": "59 Lee's Creek Road", "CITY": "Asheville", "ZIP": "28806", "NMCNTY": "Buncombe County", "TOTAL": "97", "LAT": 35.618898, "LON": -82.619454 }, "geometry": { "type": "Point", "coordinates": [ -82.619454, 35.618898 ] } },
{ "type": "Feature", "properties": { "TYPE": "Public", "NAME": "Nesbitt Discovery Academy", "STREET": "175 Bingham Rd Ste 10", "CITY": "Asheville", "ZIP": "28806", "NMCNTY": "Buncombe County", "TOTAL": "97", "LAT": 35.6069, "LON": -82.583401 }, "geometry": { "type": "Point", "coordinates": [ -82.583401, 35.6069 ] } },
{ "type": "Feature", "properties": { "TYPE": "Public", "NAME": "Enka Intermediate", "STREET": "125 Asheville Commerce Parkway", "CITY": "Candler", "ZIP": "28715", "NMCNTY": "Buncombe County", "TOTAL": "97", "LAT": 35.543721, "LON": -82.637251 }, "geometry": { "type": "Point", "coordinates": [ -82.637251, 35.543721 ] } },
{ "type": "Feature", "properties": { "TYPE": "Public", "NAME": "Buncombe County Schools Virtual Academy", "STREET": "175 Bingham Rd", "CITY": "Asheville", "ZIP": "28806", "NMCNTY": "Buncombe County", "TOTAL": "97", "LAT": 35.6069, "LON": -82.583401 }, "geometry": { "type": "Point", "coordinates": [ -82.583401, 35.6069 ] } },
{ "type": "Feature", "properties": { "TYPE": "Public", "NAME": "Asheville PEAK Academy", "STREET": "27 Balm Grove Avenue", "CITY": "Asheville", "ZIP": "28806", "NMCNTY": "Buncombe County", "TOTAL": "97", "LAT": 35.579615, "LON": -82.587406 }, "geometry": { "type": "Point", "coordinates": [ -82.587406, 35.579615 ] } },
{ "type": "Feature", "properties": { "TYPE": "PostSecondary", "NAME": "Asheville-Buncombe Technical Community College", "STREET": "340 Victoria Rd", "CITY": "Asheville", "ZIP": "28801-4897", "NMCNTY": "Buncombe County", "TOTAL": "97", "LAT": 35.570439, "LON": -82.554826 }, "geometry": { "type": "Point", "coordinates": [ -82.554826, 35.570439 ] } },
{ "type": "Feature", "properties": { "TYPE": "PostSecondary", "NAME": "Montreat College", "STREET": "310 Gaither Circle", "CITY": "Montreat", "ZIP": "28757-1267", "NMCNTY": "Buncombe County", "TOTAL": "97", "LAT": 35.646577, "LON": -82.2976 }, "geometry": { "type": "Point", "coordinates": [ -82.2976, 35.646577 ] } },
{ "type": "Feature", "properties": { "TYPE": "PostSecondary", "NAME": "University of North Carolina at Asheville", "STREET": "One University Heights", "CITY": "Asheville", "ZIP": "28804-8510", "NMCNTY": "Buncombe County", "TOTAL": "97", "LAT": 35.617068, "LON": -82.565392 }, "geometry": { "type": "Point", "coordinates": [ -82.565392, 35.617068 ] } },
{ "type": "Feature", "properties": { "TYPE": "PostSecondary", "NAME": "Warren Wilson College", "STREET": "701 Warren Wilson Rd", "CITY": "Swannanoa", "ZIP": "28778-2099", "NMCNTY": "Buncombe County", "TOTAL": "97", "LAT": 35.610328, "LON": -82.442619 }, "geometry": { "type": "Point", "coordinates": [ -82.442619, 35.610328 ] } },
{ "type": "Feature", "properties": { "TYPE": "PostSecondary", "NAME": "South College-Asheville", "STREET": "140 Sweeten Creek Road", "CITY": "Asheville", "ZIP": "28803-0000", "NMCNTY": "Buncombe County", "TOTAL": "97", "LAT": 35.553771, "LON": -82.51897 }, "geometry": { "type": "Point", "coordinates": [ -82.51897, 35.553771 ] } },
{ "type": "Feature", "properties": { "TYPE": "PostSecondary", "NAME": "Daoist Traditions College of Chinese Medical Arts", "STREET": "382 Montford Ave", "CITY": "Asheville", "ZIP": "28801", "NMCNTY": "Buncombe County", "TOTAL": "97", "LAT": 35.606831, "LON": -82.568537 }, "geometry": { "type": "Point", "coordinates": [ -82.568537, 35.606831 ] } },
{ "type": "Feature", "properties": { "TYPE": "PostSecondary", "NAME": "Center for Massage", "STREET": "16 Eagle Street, Suite 100", "CITY": "Asheville", "ZIP": "28801", "NMCNTY": "Buncombe County", "TOTAL": "97", "LAT": 35.594, "LON": -82.550571 }, "geometry": { "type": "Point", "coordinates": [ -82.550571, 35.594 ] } },
{ "type": "Feature", "properties": { "TYPE": "PostSecondary", "NAME": "Carolina College of Hair Design", "STREET": "1302 Patton Ave Suite 20", "CITY": "Asheville", "ZIP": "28806-2711", "NMCNTY": "Buncombe County", "TOTAL": "97", "LAT": 35.584088, "LON": -82.601533 }, "geometry": { "type": "Point", "coordinates": [ -82.601533, 35.584088 ] } },
{ "type": "Feature", "properties": { "TYPE": "Private", "NAME": "SILVERCREEK ADVENTIST SCHOOL", "STREET": "2195 JAMESTOWN RD", "CITY": "MORGANTON", "ZIP": "28655", "NMCNTY": "Burke County", "TOTAL": "35", "LAT": 35.701919, "LON": -81.789455 }, "geometry": { "type": "Point", "coordinates": [ -81.789455, 35.701919 ] } },
{ "type": "Feature", "properties": { "TYPE": "Private", "NAME": "MORGANTON DAY SCHOOL", "STREET": "305 W CONCORD ST", "CITY": "MORGANTON", "ZIP": "28655", "NMCNTY": "Burke County", "TOTAL": "35", "LAT": 35.740847, "LON": -81.688404 }, "geometry": { "type": "Point", "coordinates": [ -81.688404, 35.740847 ] } },
{ "type": "Feature", "properties": { "TYPE": "Private", "NAME": "REFLECTIONS OF CHRIST CHRISTIAN ACADEMY", "STREET": "110 3RD ST SE", "CITY": "HILDEBRAN", "ZIP": "28637", "NMCNTY": "Burke County", "TOTAL": "35", "LAT": 35.71256, "LON": -81.416171 }, "geometry": { "type": "Point", "coordinates": [ -81.416171, 35.71256 ] } },
{ "type": "Feature", "properties": { "TYPE": "Private", "NAME": "CHRIST CLASSICAL ACADEMY", "STREET": "400 MALCOLM BLVD", "CITY": "CONNELLY SPRINGS", "ZIP": "28612", "NMCNTY": "Burke County", "TOTAL": "35", "LAT": 35.741908, "LON": -81.525542 }, "geometry": { "type": "Point", "coordinates": [ -81.525542, 35.741908 ] } },
{ "type": "Feature", "properties": { "TYPE": "Private", "NAME": "THE LEARNING CENTER", "STREET": "5208 FOREMAN ST", "CITY": "MORGANTON", "ZIP": "28655", "NMCNTY": "Burke County", "TOTAL": "35", "LAT": 35.663508, "LON": -81.782879 }, "geometry": { "type": "Point", "coordinates": [ -81.782879, 35.663508 ] } },
{ "type": "Feature", "properties": { "TYPE": "Public", "NAME": "New Dimensions", "STREET": "550 Lenoir Road", "CITY": "Morganton", "ZIP": "28655", "NMCNTY": "Burke County", "TOTAL": "35", "LAT": 35.772675, "LON": -81.687642 }, "geometry": { "type": "Point", "coordinates": [ -81.687642, 35.772675 ] } },
{ "type": "Feature", "properties": { "TYPE": "Public", "NAME": "NC School for the Deaf", "STREET": "517 W Fleming Dr", "CITY": "Morganton", "ZIP": "28655", "NMCNTY": "Burke County", "TOTAL": "35", "LAT": 35.73, "LON": -81.6909 }, "geometry": { "type": "Point", "coordinates": [ -81.6909, 35.73 ] } },
{ "type": "Feature", "properties": { "TYPE": "Public", "NAME": "Heritage Middle", "STREET": "1951 Enon Road", "CITY": "Valdese", "ZIP": "28690", "NMCNTY": "Burke County", "TOTAL": "35", "LAT": 35.7591, "LON": -81.5808 }, "geometry": { "type": "Point", "coordinates": [ -81.5808, 35.7591 ] } },
{ "type": "Feature", "properties": { "TYPE": "Public", "NAME": "Table Rock Middle", "STREET": "1585 NC 126", "CITY": "Morganton", "ZIP": "28655", "NMCNTY": "Burke County", "TOTAL": "35", "LAT": 35.754, "LON": -81.7691 }, "geometry": { "type": "Point", "coordinates": [ -81.7691, 35.754 ] } },
{ "type": "Feature", "properties": { "TYPE": "Public", "NAME": "East Burke High", "STREET": "3695 East Burke Boulevard", "CITY": "Connelly Springs", "ZIP": "28612", "NMCNTY": "Burke County", "TOTAL": "35", "LAT": 35.7216, "LON": -81.4821 }, "geometry": { "type": "Point", "coordinates": [ -81.4821, 35.7216 ] } },
{ "type": "Feature", "properties": { "TYPE": "Public", "NAME": "Forest Hill Elementary", "STREET": "304 Ann Street", "CITY": "Morganton", "ZIP": "28655", "NMCNTY": "Burke County", "TOTAL": "35", "LAT": 35.7324, "LON": -81.7012 }, "geometry": { "type": "Point", "coordinates": [ -81.7012, 35.7324 ] } },
{ "type": "Feature", "properties": { "TYPE": "Public", "NAME": "Freedom High", "STREET": "511 Independence Boulevard", "CITY": "Morganton", "ZIP": "28655", "NMCNTY": "Burke County", "TOTAL": "35", "LAT": 35.7449, "LON": -81.72 }, "geometry": { "type": "Point", "coordinates": [ -81.72, 35.7449 ] } },
{ "type": "Feature", "properties": { "TYPE": "Public", "NAME": "George Hildebrand Elementary", "STREET": "8078 G Hildebrand Sch Road", "CITY": "Connelly Springs", "ZIP": "28612", "NMCNTY": "Burke County", "TOTAL": "35", "LAT": 35.6372, "LON": -81.5135 }, "geometry": { "type": "Point", "coordinates": [ -81.5135, 35.6372 ] } },
{ "type": "Feature", "properties": { "TYPE": "Public", "NAME": "Glen Alpine Elementary", "STREET": "302 London Street", "CITY": "Morganton", "ZIP": "28655", "NMCNTY": "Burke County", "TOTAL": "35", "LAT": 35.724866, "LON": -81.779557 }, "geometry": { "type": "Point", "coordinates": [ -81.779557, 35.724866 ] } },
{ "type": "Feature", "properties": { "TYPE": "Public", "NAME": "Hildebran Elementary", "STREET": "703 US Hwy 70 West", "CITY": "Hildebran", "ZIP": "28637", "NMCNTY": "Burke County", "TOTAL": "35", "LAT": 35.7146, "LON": -81.4261 }, "geometry": { "type": "Point", "coordinates": [ -81.4261, 35.7146 ] } },
{ "type": "Feature", "properties": { "TYPE": "Public", "NAME": "Hillcrest Elementary", "STREET": "201 Tennessee Street", "CITY": "Morganton", "ZIP": "28655", "NMCNTY": "Burke County", "TOTAL": "35", "LAT": 35.754, "LON": -81.6745 }, "geometry": { "type": "Point", "coordinates": [ -81.6745, 35.754 ] } },
{ "type": "Feature", "properties": { "TYPE": "Public", "NAME": "Icard Elementary", "STREET": "3087 Icard School Road", "CITY": "Connelly Springs", "ZIP": "28612", "NMCNTY": "Burke County", "TOTAL": "35", "LAT": 35.729, "LON": -81.4688 }, "geometry": { "type": "Point", "coordinates": [ -81.4688, 35.729 ] } },
{ "type": "Feature", "properties": { "TYPE": "Public", "NAME": "Mull Elementary", "STREET": "1140 Old NC 18 South", "CITY": "Morganton", "ZIP": "28655", "NMCNTY": "Burke County", "TOTAL": "35", "LAT": 35.7048, "LON": -81.6596 }, "geometry": { "type": "Point", "coordinates": [ -81.6596, 35.7048 ] } },
{ "type": "Feature", "properties": { "TYPE": "Public", "NAME": "Oak Hill Elementary", "STREET": "2363 NC 181", "CITY": "Morganton", "ZIP": "28655", "NMCNTY": "Burke County", "TOTAL": "35", "LAT": 35.7764, "LON": -81.7566 }, "geometry": { "type": "Point", "coordinates": [ -81.7566, 35.7764 ] } },
{ "type": "Feature", "properties": { "TYPE": "Public", "NAME": "Salem Elementary", "STREET": "1329 Salem Road", "CITY": "Morganton", "ZIP": "28655", "NMCNTY": "Burke County", "TOTAL": "35", "LAT": 35.6943, "LON": -81.701 }, "geometry": { "type": "Point", "coordinates": [ -81.701, 35.6943 ] } },
{ "type": "Feature", "properties": { "TYPE": "Public", "NAME": "Valdese Elementary", "STREET": "298 Praley Street", "CITY": "Valdese", "ZIP": "28690", "NMCNTY": "Burke County", "TOTAL": "35", "LAT": 35.746899, "LON": -81.566319 }, "geometry": { "type": "Point", "coordinates": [ -81.566319, 35.746899 ] } },
{ "type": "Feature", "properties": { "TYPE": "Public", "NAME": "Hallyburton Academy", "STREET": "205 South Main Street", "CITY": "Drexel", "ZIP": "28619", "NMCNTY": "Burke County", "TOTAL": "35", "LAT": 35.755215, "LON": -81.603981 }, "geometry": { "type": "Point", "coordinates": [ -81.603981, 35.755215 ] } },
{ "type": "Feature", "properties": { "TYPE": "Public", "NAME": "North Liberty", "STREET": "523 Enola Road", "CITY": "Morganton", "ZIP": "28655", "NMCNTY": "Burke County", "TOTAL": "35", "LAT": 35.7087, "LON": -81.6707 }, "geometry": { "type": "Point", "coordinates": [ -81.6707, 35.7087 ] } },
{ "type": "Feature", "properties": { "TYPE": "Public", "NAME": "East Burke Middle", "STREET": "3519 Miller Bridge Road", "CITY": "Connelly Springs", "ZIP": "28612", "NMCNTY": "Burke County", "TOTAL": "35", "LAT": 35.715394, "LON": -81.468094 }, "geometry": { "type": "Point", "coordinates": [ -81.468094, 35.715394 ] } },
{ "type": "Feature", "properties": { "TYPE": "Public", "NAME": "Liberty Middle", "STREET": "529 Enola Road", "CITY": "Morganton", "ZIP": "28655", "NMCNTY": "Burke County", "TOTAL": "35", "LAT": 35.7075, "LON": -81.6704 }, "geometry": { "type": "Point", "coordinates": [ -81.6704, 35.7075 ] } },
{ "type": "Feature", "properties": { "TYPE": "Public", "NAME": "Ray Childers Elementary", "STREET": "1183 Cape Hickory Road", "CITY": "Hickory", "ZIP": "28601", "NMCNTY": "Burke County", "TOTAL": "35", "LAT": 35.7503, "LON": -81.4283 }, "geometry": { "type": "Point", "coordinates": [ -81.4283, 35.7503 ] } },
{ "type": "Feature", "properties": { "TYPE": "Public", "NAME": "W A Young Elementary", "STREET": "325 Conley Road", "CITY": "Morganton", "ZIP": "28655", "NMCNTY": "Burke County", "TOTAL": "35", "LAT": 35.719, "LON": -81.7662 }, "geometry": { "type": "Point", "coordinates": [ -81.7662, 35.719 ] } },
{ "type": "Feature", "properties": { "TYPE": "Public", "NAME": "Walter R Johnson Middle", "STREET": "701 Lenoir Road", "CITY": "Morganton", "ZIP": "28655", "NMCNTY": "Burke County", "TOTAL": "35", "LAT": 35.7805, "LON": -81.692 }, "geometry": { "type": "Point", "coordinates": [ -81.692, 35.7805 ] } },
{ "type": "Feature", "properties": { "TYPE": "Public", "NAME": "Drexel Elementary", "STREET": "100 Alta Vista Street", "CITY": "Morganton", "ZIP": "28655", "NMCNTY": "Burke County", "TOTAL": "35", "LAT": 35.7495, "LON": -81.6087 }, "geometry": { "type": "Point", "coordinates": [ -81.6087, 35.7495 ] } },
{ "type": "Feature", "properties": { "TYPE": "Public", "NAME": "Robert L. Patton High School", "STREET": "701 Enola Road", "CITY": "Morganton", "ZIP": "28655", "NMCNTY": "Burke County", "TOTAL": "35", "LAT": 35.7029, "LON": -81.67 }, "geometry": { "type": "Point", "coordinates": [ -81.67, 35.7029 ] } },
{ "type": "Feature", "properties": { "TYPE": "Public", "NAME": "Jimmy C Draughn High School", "STREET": "709 Lovelady Road NE", "CITY": "Valdese", "ZIP": "28690", "NMCNTY": "Burke County", "TOTAL": "35", "LAT": 35.766685, "LON": -81.543673 }, "geometry": { "type": "Point", "coordinates": [ -81.543673, 35.766685 ] } },
{ "type": "Feature", "properties": { "TYPE": "Public", "NAME": "Burke Middle College", "STREET": "1001 Burkemont Ave", "CITY": "Morganton", "ZIP": "28655", "NMCNTY": "Burke County", "TOTAL": "35", "LAT": 35.723454, "LON": -81.68837 }, "geometry": { "type": "Point", "coordinates": [ -81.68837, 35.723454 ] } },
{ "type": "Feature", "properties": { "TYPE": "Public", "NAME": "Mountain View Elementary", "STREET": "805 Bouchelle St", "CITY": "Morganton", "ZIP": "28655", "NMCNTY": "Burke County", "TOTAL": "35", "LAT": 35.753526, "LON": -81.701618 }, "geometry": { "type": "Point", "coordinates": [ -81.701618, 35.753526 ] } },
{ "type": "Feature", "properties": { "TYPE": "Public", "NAME": "Burke Virtual Academy", "STREET": "Glen Alpine Elementary", "CITY": "Morganton", "ZIP": "28655", "NMCNTY": "Burke County", "TOTAL": "35", "LAT": 35.723454, "LON": -81.68837 }, "geometry": { "type": "Point", "coordinates": [ -81.68837, 35.723454 ] } },
{ "type": "Feature", "properties": { "TYPE": "PostSecondary", "NAME": "Western Piedmont Community College", "STREET": "1001 Burkemont Ave", "CITY": "Morganton", "ZIP": "28655-4511", "NMCNTY": "Burke County", "TOTAL": "35", "LAT": 35.722876, "LON": -81.687345 }, "geometry": { "type": "Point", "coordinates": [ -81.687345, 35.722876 ] } },
{ "type": "Feature", "properties": { "TYPE": "Private", "NAME": "HERITAGE CHRISTIAN SCHOOL", "STREET": "239 MOUNT HERMAN RD", "CITY": "HUDSON", "ZIP": "28638", "NMCNTY": "Caldwell County", "TOTAL": "27", "LAT": 35.856168, "LON": -81.489461 }, "geometry": { "type": "Point", "coordinates": [ -81.489461, 35.856168 ] } },
{ "type": "Feature", "properties": { "TYPE": "Public", "NAME": "Baton Elementary", "STREET": "1400 Baton School Road", "CITY": "Granite Falls", "ZIP": "28630", "NMCNTY": "Caldwell County", "TOTAL": "27", "LAT": 35.8088, "LON": -81.536 }, "geometry": { "type": "Point", "coordinates": [ -81.536, 35.8088 ] } },
{ "type": "Feature", "properties": { "TYPE": "Public", "NAME": "Collettsville School", "STREET": "4690 Collettsville School Rd", "CITY": "Collettsville", "ZIP": "28611", "NMCNTY": "Caldwell County", "TOTAL": "27", "LAT": 35.927, "LON": -81.6728 }, "geometry": { "type": "Point", "coordinates": [ -81.6728, 35.927 ] } },
{ "type": "Feature", "properties": { "TYPE": "Public", "NAME": "Davenport A+ School", "STREET": "901 College Avenue SW", "CITY": "Lenoir", "ZIP": "28645", "NMCNTY": "Caldwell County", "TOTAL": "27", "LAT": 35.9118, "LON": -81.5393 }, "geometry": { "type": "Point", "coordinates": [ -81.5393, 35.9118 ] } },
{ "type": "Feature", "properties": { "TYPE": "Public", "NAME": "Dudley Shoals Elementary", "STREET": "1500 Dudley Shoals Road", "CITY": "Granite Falls", "ZIP": "28630", "NMCNTY": "Caldwell County", "TOTAL": "27", "LAT": 35.8562, "LON": -81.3925 }, "geometry": { "type": "Point", "coordinates": [ -81.3925, 35.8562 ] } },
{ "type": "Feature", "properties": { "TYPE": "Public", "NAME": "Gamewell Elementary", "STREET": "2904 Morganton Boulevard", "CITY": "Lenoir", "ZIP": "28645", "NMCNTY": "Caldwell County", "TOTAL": "27", "LAT": 35.8688, "LON": -81.5973 }, "geometry": { "type": "Point", "coordinates": [ -81.5973, 35.8688 ] } },
{ "type": "Feature", "properties": { "TYPE": "Public", "NAME": "Gamewell Middle", "STREET": "3210 Gamewell School Road", "CITY": "Lenoir", "ZIP": "28645", "NMCNTY": "Caldwell County", "TOTAL": "27", "LAT": 35.8712, "LON": -81.5987 }, "geometry": { "type": "Point", "coordinates": [ -81.5987, 35.8712 ] } },
{ "type": "Feature", "properties": { "TYPE": "Public", "NAME": "Granite Falls Elementary", "STREET": "60 N Highland Avenue", "CITY": "Granite Falls", "ZIP": "28630", "NMCNTY": "Caldwell County", "TOTAL": "27", "LAT": 35.8071, "LON": -81.4348 }, "geometry": { "type": "Point", "coordinates": [ -81.4348, 35.8071 ] } },
{ "type": "Feature", "properties": { "TYPE": "Public", "NAME": "Granite Falls Middle", "STREET": "4 West Highland Ave", "CITY": "Granite Falls", "ZIP": "28630", "NMCNTY": "Caldwell County", "TOTAL": "27", "LAT": 35.800406, "LON": -81.438691 }, "geometry": { "type": "Point", "coordinates": [ -81.438691, 35.800406 ] } },
{ "type": "Feature", "properties": { "TYPE": "Public", "NAME": "Happy Valley Elementary", "STREET": "1350 Yadkin River Road", "CITY": "Lenoir", "ZIP": "28645", "NMCNTY": "Caldwell County", "TOTAL": "27", "LAT": 35.99525, "LON": -81.56044 }, "geometry": { "type": "Point", "coordinates": [ -81.56044, 35.99525 ] } },
{ "type": "Feature", "properties": { "TYPE": "Public", "NAME": "Hibriten High", "STREET": "1350 Panther Trail SE", "CITY": "Lenoir", "ZIP": "28645", "NMCNTY": "Caldwell County", "TOTAL": "27", "LAT": 35.9252, "LON": -81.495 }, "geometry": { "type": "Point", "coordinates": [ -81.495, 35.9252 ] } },
{ "type": "Feature", "properties": { "TYPE": "Public", "NAME": "Hudson Elementary", "STREET": "200 Roy Coffey Drive", "CITY": "Hudson", "ZIP": "28638", "NMCNTY": "Caldwell County", "TOTAL": "27", "LAT": 35.849035, "LON": -81.482755 }, "geometry": { "type": "Point", "coordinates": [ -81.482755, 35.849035 ] } },
{ "type": "Feature", "properties": { "TYPE": "Public", "NAME": "Hudson Middle", "STREET": "291 Pine Mountain Road", "CITY": "Hudson", "ZIP": "28638", "NMCNTY": "Caldwell County", "TOTAL": "27", "LAT": 35.8482, "LON": -81.4786 }, "geometry": { "type": "Point", "coordinates": [ -81.4786, 35.8482 ] } },
{ "type": "Feature", "properties": { "TYPE": "Public", "NAME": "Kings Creek Elementary", "STREET": "3680 Wilkesboro Boulevard", "CITY": "Lenoir", "ZIP": "28645", "NMCNTY": "Caldwell County", "TOTAL": "27", "LAT": 35.992, "LON": -81.4007 }, "geometry": { "type": "Point", "coordinates": [ -81.4007, 35.992 ] } },
{ "type": "Feature", "properties": { "TYPE": "Public", "NAME": "Lower Creek Elementary", "STREET": "630 Lower Creek Drive NE", "CITY": "Lenoir", "ZIP": "28645", "NMCNTY": "Caldwell County", "TOTAL": "27", "LAT": 35.9225, "LON": -81.5117 }, "geometry": { "type": "Point", "coordinates": [ -81.5117, 35.9225 ] } },
{ "type": "Feature", "properties": { "TYPE": "Public", "NAME": "Sawmills Elementary", "STREET": "4436 Sawmills School Road", "CITY": "Granite Falls", "ZIP": "28630", "NMCNTY": "Caldwell County", "TOTAL": "27", "LAT": 35.8185, "LON": -81.4791 }, "geometry": { "type": "Point", "coordinates": [ -81.4791, 35.8185 ] } },
{ "type": "Feature", "properties": { "TYPE": "Public", "NAME": "South Caldwell High", "STREET": "7035 Spartan Drive", "CITY": "Hudson", "ZIP": "28638", "NMCNTY": "Caldwell County", "TOTAL": "27", "LAT": 35.8214, "LON": -81.4508 }, "geometry": { "type": "Point", "coordinates": [ -81.4508, 35.8214 ] } },
{ "type": "Feature", "properties": { "TYPE": "Public", "NAME": "Valmead Elementary", "STREET": "111 Elizabeth Drive NW", "CITY": "Lenoir", "ZIP": "28645", "NMCNTY": "Caldwell County", "TOTAL": "27", "LAT": 35.9372, "LON": -81.5403 }, "geometry": { "type": "Point", "coordinates": [ -81.5403, 35.9372 ] } },
{ "type": "Feature", "properties": { "TYPE": "Public", "NAME": "West Caldwell High", "STREET": "300 W Caldwell Drive", "CITY": "Lenoir", "ZIP": "28645", "NMCNTY": "Caldwell County", "TOTAL": "27", "LAT": 35.8868, "LON": -81.5918 }, "geometry": { "type": "Point", "coordinates": [ -81.5918, 35.8868 ] } },
{ "type": "Feature", "properties": { "TYPE": "Public", "NAME": "West Lenoir Elementary", "STREET": "125 Maple Drive NW", "CITY": "Lenoir", "ZIP": "28645", "NMCNTY": "Caldwell County", "TOTAL": "27", "LAT": 35.9094, "LON": -81.5528 }, "geometry": { "type": "Point", "coordinates": [ -81.5528, 35.9094 ] } },
{ "type": "Feature", "properties": { "TYPE": "Public", "NAME": "Whitnel Elementary", "STREET": "1425 Berkley Street SW", "CITY": "Lenoir", "ZIP": "28645", "NMCNTY": "Caldwell County", "TOTAL": "27", "LAT": 35.89031, "LON": -81.521741 }, "geometry": { "type": "Point", "coordinates": [ -81.521741, 35.89031 ] } },
{ "type": "Feature", "properties": { "TYPE": "Public", "NAME": "William Lenoir Middle", "STREET": "1366 Wildcat Trail", "CITY": "Lenoir", "ZIP": "28645", "NMCNTY": "Caldwell County", "TOTAL": "27", "LAT": 35.924207, "LON": -81.496055 }, "geometry": { "type": "Point", "coordinates": [ -81.496055, 35.924207 ] } },
{ "type": "Feature", "properties": { "TYPE": "Public", "NAME": "Gateway School", "STREET": "1889 Dudley Shoals Road", "CITY": "Granite Falls", "ZIP": "28630", "NMCNTY": "Caldwell County", "TOTAL": "27", "LAT": 35.8644, "LON": -81.3684 }, "geometry": { "type": "Point", "coordinates": [ -81.3684, 35.8644 ] } },
{ "type": "Feature", "properties": { "TYPE": "Public", "NAME": "Caldwell Applied Sciences Academy", "STREET": "2857 Hickory Boulevard", "CITY": "Hudson", "ZIP": "28638", "NMCNTY": "Caldwell County", "TOTAL": "27", "LAT": 35.8555, "LON": -81.4852 }, "geometry": { "type": "Point", "coordinates": [ -81.4852, 35.8555 ] } },
{ "type": "Feature", "properties": { "TYPE": "Public", "NAME": "Horizons Elementary", "STREET": "332 Greenhaven Dr. NW", "CITY": "Lenoir", "ZIP": "28645", "NMCNTY": "Caldwell County", "TOTAL": "27", "LAT": 35.926783, "LON": -81.535735 }, "geometry": { "type": "Point", "coordinates": [ -81.535735, 35.926783 ] } },
{ "type": "Feature", "properties": { "TYPE": "Public", "NAME": "Caldwell Early College", "STREET": "2859 Hickory Blvd SW", "CITY": "Hudson", "ZIP": "28638", "NMCNTY": "Caldwell County", "TOTAL": "27", "LAT": 35.85753, "LON": -81.486721 }, "geometry": { "type": "Point", "coordinates": [ -81.486721, 35.85753 ] } },
{ "type": "Feature", "properties": { "TYPE": "PostSecondary", "NAME": "Caldwell Community College and Technical Institute", "STREET": "2855 Hickory Boulevard", "CITY": "Hudson", "ZIP": "28638", "NMCNTY": "Caldwell County", "TOTAL": "27", "LAT": 35.854604, "LON": -81.484148 }, "geometry": { "type": "Point", "coordinates": [ -81.484148, 35.854604 ] } },
{ "type": "Feature", "properties": { "TYPE": "Private", "NAME": "MURPHY ADVENTIST CHRISTIAN SCHOOL", "STREET": "1584 OLD RANGER RD", "CITY": "MURPHY", "ZIP": "28906", "NMCNTY": "Cherokee County", "TOTAL": "17", "LAT": 35.07147, "LON": -84.058334 }, "geometry": { "type": "Point", "coordinates": [ -84.058334, 35.07147 ] } },
{ "type": "Feature", "properties": { "TYPE": "Private", "NAME": "SHEPHERD ACADEMY", "STREET": "68 FAIRFAX DR", "CITY": "MURPHY", "ZIP": "28906", "NMCNTY": "Cherokee County", "TOTAL": "17", "LAT": 35.07573, "LON": -84.048431 }, "geometry": { "type": "Point", "coordinates": [ -84.048431, 35.07573 ] } },
{ "type": "Feature", "properties": { "TYPE": "Public", "NAME": "The Learning Center", "STREET": "945 Conaheeta Street", "CITY": "Murphy", "ZIP": "28906", "NMCNTY": "Cherokee County", "TOTAL": "17", "LAT": 35.094097, "LON": -84.035017 }, "geometry": { "type": "Point", "coordinates": [ -84.035017, 35.094097 ] } },
{ "type": "Feature", "properties": { "TYPE": "Public", "NAME": "Andrews Elementary", "STREET": "205 Jean Christy Ave.", "CITY": "Andrews", "ZIP": "28901", "NMCNTY": "Cherokee County", "TOTAL": "17", "LAT": 35.1983, "LON": -83.8253 }, "geometry": { "type": "Point", "coordinates": [ -83.8253, 35.1983 ] } },
{ "type": "Feature", "properties": { "TYPE": "Public", "NAME": "Andrews High", "STREET": "50 High School Drive", "CITY": "Andrews", "ZIP": "28901", "NMCNTY": "Cherokee County", "TOTAL": "17", "LAT": 35.1954, "LON": -83.8244 }, "geometry": { "type": "Point", "coordinates": [ -83.8244, 35.1954 ] } },
{ "type": "Feature", "properties": { "TYPE": "Public", "NAME": "Hiwassee Dam Elementary\/Middle", "STREET": "337 Blue Eagle Circle", "CITY": "Murphy", "ZIP": "28906", "NMCNTY": "Cherokee County", "TOTAL": "17", "LAT": 35.103443, "LON": -84.223039 }, "geometry": { "type": "Point", "coordinates": [ -84.223039, 35.103443 ] } },
{ "type": "Feature", "properties": { "TYPE": "Public", "NAME": "Martins Creek Elementary\/Mid", "STREET": "1459 Tobe Stalcup Road", "CITY": "Murphy", "ZIP": "28906", "NMCNTY": "Cherokee County", "TOTAL": "17", "LAT": 35.0195, "LON": -84.0186 }, "geometry": { "type": "Point", "coordinates": [ -84.0186, 35.0195 ] } },
{ "type": "Feature", "properties": { "TYPE": "Public", "NAME": "Murphy Elementary", "STREET": "315 Valley River Avenue", "CITY": "Murphy", "ZIP": "28906", "NMCNTY": "Cherokee County", "TOTAL": "17", "LAT": 35.0899, "LON": -84.0305 }, "geometry": { "type": "Point", "coordinates": [ -84.0305, 35.0899 ] } },
{ "type": "Feature", "properties": { "TYPE": "Public", "NAME": "Murphy High", "STREET": "234 High School Circle", "CITY": "Murphy", "ZIP": "28906", "NMCNTY": "Cherokee County", "TOTAL": "17", "LAT": 35.1005, "LON": -84.0164 }, "geometry": { "type": "Point", "coordinates": [ -84.0164, 35.1005 ] } },
{ "type": "Feature", "properties": { "TYPE": "Public", "NAME": "Peachtree Elementary", "STREET": "30 Upper Peachtree Road", "CITY": "Murphy", "ZIP": "28906", "NMCNTY": "Cherokee County", "TOTAL": "17", "LAT": 35.0913, "LON": -83.9456 }, "geometry": { "type": "Point", "coordinates": [ -83.9456, 35.0913 ] } },
{ "type": "Feature", "properties": { "TYPE": "Public", "NAME": "Ranger Elementary\/Middle", "STREET": "101 Hardy Truett Road", "CITY": "Murphy", "ZIP": "28906", "NMCNTY": "Cherokee County", "TOTAL": "17", "LAT": 35.0157, "LON": -84.1827 }, "geometry": { "type": "Point", "coordinates": [ -84.1827, 35.0157 ] } },
{ "type": "Feature", "properties": { "TYPE": "Public", "NAME": "Murphy Middle", "STREET": "65 Middle School Drive", "CITY": "Murphy", "ZIP": "28906", "NMCNTY": "Cherokee County", "TOTAL": "17", "LAT": 35.1005, "LON": -84.0149 }, "geometry": { "type": "Point", "coordinates": [ -84.0149, 35.1005 ] } },
{ "type": "Feature", "properties": { "TYPE": "Public", "NAME": "Andrews Middle", "STREET": "2750 Business Hwy 19", "CITY": "Andrews", "ZIP": "28901", "NMCNTY": "Cherokee County", "TOTAL": "17", "LAT": 35.1949, "LON": -83.7977 }, "geometry": { "type": "Point", "coordinates": [ -83.7977, 35.1949 ] } },
{ "type": "Feature", "properties": { "TYPE": "Public", "NAME": "The Oaks Academy", "STREET": "2230 Airport Road", "CITY": "Marble", "ZIP": "28905", "NMCNTY": "Cherokee County", "TOTAL": "17", "LAT": 35.179064, "LON": -83.920899 }, "geometry": { "type": "Point", "coordinates": [ -83.920899, 35.179064 ] } },
{ "type": "Feature", "properties": { "TYPE": "Public", "NAME": "Hiwassee Dam High", "STREET": "267 Blue Eagle Circle", "CITY": "Murphy", "ZIP": "28906", "NMCNTY": "Cherokee County", "TOTAL": "17", "LAT": 35.1039, "LON": -84.2237 }, "geometry": { "type": "Point", "coordinates": [ -84.2237, 35.1039 ] } },
{ "type": "Feature", "properties": { "TYPE": "Public", "NAME": "Tri-County Early College High", "STREET": "4650 E US 64 Alt.", "CITY": "Murphy", "ZIP": "28906", "NMCNTY": "Cherokee County", "TOTAL": "17", "LAT": 35.066548, "LON": -83.965842 }, "geometry": { "type": "Point", "coordinates": [ -83.965842, 35.066548 ] } },
{ "type": "Feature", "properties": { "TYPE": "PostSecondary", "NAME": "Tri-County Community College", "STREET": "21 Campus Circle", "CITY": "Murphy", "ZIP": "28906", "NMCNTY": "Cherokee County", "TOTAL": "17", "LAT": 35.067021, "LON": -83.966476 }, "geometry": { "type": "Point", "coordinates": [ -83.966476, 35.067021 ] } },
{ "type": "Feature", "properties": { "TYPE": "Private", "NAME": "CAROLINA CHRISTIAN ACADEMY", "STREET": "259 TUSQUITTEE ST", "CITY": "HAYESVILLE", "ZIP": "28904", "NMCNTY": "Clay County", "TOTAL": "5", "LAT": 35.050114, "LON": -83.819361 }, "geometry": { "type": "Point", "coordinates": [ -83.819361, 35.050114 ] } },
{ "type": "Feature", "properties": { "TYPE": "Public", "NAME": "Hayesville Elementary", "STREET": "72 Elementary School Drive", "CITY": "Hayesville", "ZIP": "28904", "NMCNTY": "Clay County", "TOTAL": "5", "LAT": 35.042195, "LON": -83.814572 }, "geometry": { "type": "Point", "coordinates": [ -83.814572, 35.042195 ] } },
{ "type": "Feature", "properties": { "TYPE": "Public", "NAME": "Hayesville High", "STREET": "205 Yellow Jacket Drive", "CITY": "Hayesville", "ZIP": "28904", "NMCNTY": "Clay County", "TOTAL": "5", "LAT": 35.041027, "LON": -83.815108 }, "geometry": { "type": "Point", "coordinates": [ -83.815108, 35.041027 ] } },
{ "type": "Feature", "properties": { "TYPE": "Public", "NAME": "Hayesville Middle", "STREET": "135 School Drive", "CITY": "Hayesville", "ZIP": "28904", "NMCNTY": "Clay County", "TOTAL": "5", "LAT": 35.040694, "LON": -83.817031 }, "geometry": { "type": "Point", "coordinates": [ -83.817031, 35.040694 ] } },
{ "type": "Feature", "properties": { "TYPE": "Public", "NAME": "Hayesville Primary School", "STREET": "698 Anderson St", "CITY": "Hayesville", "ZIP": "28904", "NMCNTY": "Clay County", "TOTAL": "5", "LAT": 35.041728, "LON": -83.812128 }, "geometry": { "type": "Point", "coordinates": [ -83.812128, 35.041728 ] } },
{ "type": "Feature", "properties": { "TYPE": "Public", "NAME": "Robbinsville Middle", "STREET": "301B Sweetwater Road", "CITY": "Robbinsville", "ZIP": "28771", "NMCNTY": "Graham County", "TOTAL": "3", "LAT": 35.3293, "LON": -83.7983 }, "geometry": { "type": "Point", "coordinates": [ -83.7983, 35.3293 ] } },
{ "type": "Feature", "properties": { "TYPE": "Public", "NAME": "Robbinsville Elementary", "STREET": "54 Moose Branch Road", "CITY": "Robbinsville", "ZIP": "28771", "NMCNTY": "Graham County", "TOTAL": "3", "LAT": 35.3265, "LON": -83.8083 }, "geometry": { "type": "Point", "coordinates": [ -83.8083, 35.3265 ] } },
{ "type": "Feature", "properties": { "TYPE": "Public", "NAME": "Robbinsville High", "STREET": "301 Sweetwater Road", "CITY": "Robbinsville", "ZIP": "28771", "NMCNTY": "Graham County", "TOTAL": "3", "LAT": 35.329, "LON": -83.7967 }, "geometry": { "type": "Point", "coordinates": [ -83.7967, 35.329 ] } },
{ "type": "Feature", "properties": { "TYPE": "Private", "NAME": "HAYWOOD CHRISTIAN ACADEMY", "STREET": "77 SUTTON LOOP", "CITY": "WAYNESVILLE", "ZIP": "28786", "NMCNTY": "Haywood County", "TOTAL": "21", "LAT": 35.52438, "LON": -82.992501 }, "geometry": { "type": "Point", "coordinates": [ -82.992501, 35.52438 ] } },
{ "type": "Feature", "properties": { "TYPE": "Private", "NAME": "ACADEMY AT SOAR, SOAR INC.", "STREET": "112 VIRGINIA AVE  BLDG B.", "CITY": "WAYNESVILLE", "ZIP": "28786", "NMCNTY": "Haywood County", "TOTAL": "21", "LAT": 35.476544, "LON": -82.999486 }, "geometry": { "type": "Point", "coordinates": [ -82.999486, 35.476544 ] } },
{ "type": "Feature", "properties": { "TYPE": "Private", "NAME": "BLUE RIDGE ADVENTIST CHRISTIAN SCHOOL", "STREET": "119 HAMPSHIRE DR", "CITY": "WAYNESVILLE", "ZIP": "28786", "NMCNTY": "Haywood County", "TOTAL": "21", "LAT": 35.523747, "LON": -82.990202 }, "geometry": { "type": "Point", "coordinates": [ -82.990202, 35.523747 ] } },
{ "type": "Feature", "properties": { "TYPE": "Private", "NAME": "ST JOSEPH ACADEMY", "STREET": "175 RICH COVE RD", "CITY": "MAGGIE VALLEY", "ZIP": "28751", "NMCNTY": "Haywood County", "TOTAL": "21", "LAT": 35.520333, "LON": -83.095945 }, "geometry": { "type": "Point", "coordinates": [ -83.095945, 35.520333 ] } },
{ "type": "Feature", "properties": { "TYPE": "Public", "NAME": "Shining Rock Classical Academy", "STREET": "2150 Russ Avenue", "CITY": "Waynesville", "ZIP": "28786", "NMCNTY": "Haywood County", "TOTAL": "21", "LAT": 35.521466, "LON": -82.986805 }, "geometry": { "type": "Point", "coordinates": [ -82.986805, 35.521466 ] } },
{ "type": "Feature", "properties": { "TYPE": "Public", "NAME": "Bethel Elementary", "STREET": "4700 Old River Road", "CITY": "Canton", "ZIP": "28716", "NMCNTY": "Haywood County", "TOTAL": "21", "LAT": 35.48551, "LON": -82.88772 }, "geometry": { "type": "Point", "coordinates": [ -82.88772, 35.48551 ] } },
{ "type": "Feature", "properties": { "TYPE": "Public", "NAME": "Bethel Middle", "STREET": "630 Sonoma Road", "CITY": "Waynesville", "ZIP": "28786", "NMCNTY": "Haywood County", "TOTAL": "21", "LAT": 35.4728, "LON": -82.8946 }, "geometry": { "type": "Point", "coordinates": [ -82.8946, 35.4728 ] } },
{ "type": "Feature", "properties": { "TYPE": "Public", "NAME": "Canton Middle", "STREET": "60 Penland St", "CITY": "Canton", "ZIP": "28716", "NMCNTY": "Haywood County", "TOTAL": "21", "LAT": 35.527, "LON": -82.8423 }, "geometry": { "type": "Point", "coordinates": [ -82.8423, 35.527 ] } },
{ "type": "Feature", "properties": { "TYPE": "Public", "NAME": "Clyde Elementary", "STREET": "4182 Old Clyde Road", "CITY": "Clyde", "ZIP": "28721", "NMCNTY": "Haywood County", "TOTAL": "21", "LAT": 35.5326, "LON": -82.8949 }, "geometry": { "type": "Point", "coordinates": [ -82.8949, 35.5326 ] } },
{ "type": "Feature", "properties": { "TYPE": "Public", "NAME": "Riverbend Elementary", "STREET": "71 Learning Lane", "CITY": "Clyde", "ZIP": "28721", "NMCNTY": "Haywood County", "TOTAL": "21", "LAT": 35.584, "LON": -82.9457 }, "geometry": { "type": "Point", "coordinates": [ -82.9457, 35.584 ] } },
{ "type": "Feature", "properties": { "TYPE": "Public", "NAME": "Hazelwood Elementary", "STREET": "1111 Plott Creek Road", "CITY": "Waynesville", "ZIP": "28786", "NMCNTY": "Haywood County", "TOTAL": "21", "LAT": 35.4782, "LON": -83.0143 }, "geometry": { "type": "Point", "coordinates": [ -83.0143, 35.4782 ] } },
{ "type": "Feature", "properties": { "TYPE": "Public", "NAME": "Junaluska Elementary", "STREET": "2238 Asheville Road", "CITY": "Waynesville", "ZIP": "28786", "NMCNTY": "Haywood County", "TOTAL": "21", "LAT": 35.5086, "LON": -82.963 }, "geometry": { "type": "Point", "coordinates": [ -82.963, 35.5086 ] } },
{ "type": "Feature", "properties": { "TYPE": "Public", "NAME": "North Canton Elementary", "STREET": "60 Thompson St", "CITY": "Canton", "ZIP": "28716", "NMCNTY": "Haywood County", "TOTAL": "21", "LAT": 35.5466, "LON": -82.8342 }, "geometry": { "type": "Point", "coordinates": [ -82.8342, 35.5466 ] } },
{ "type": "Feature", "properties": { "TYPE": "Public", "NAME": "Pisgah High", "STREET": "1 Black Bear Drive", "CITY": "Canton", "ZIP": "28716", "NMCNTY": "Haywood County", "TOTAL": "21", "LAT": 35.5215, "LON": -82.8416 }, "geometry": { "type": "Point", "coordinates": [ -82.8416, 35.5215 ] } },
{ "type": "Feature", "properties": { "TYPE": "Public", "NAME": "Tuscola High", "STREET": "564 Tuscola School Rd", "CITY": "Waynesville", "ZIP": "28786", "NMCNTY": "Haywood County", "TOTAL": "21", "LAT": 35.5229, "LON": -82.9513 }, "geometry": { "type": "Point", "coordinates": [ -82.9513, 35.5229 ] } },
{ "type": "Feature", "properties": { "TYPE": "Public", "NAME": "Waynesville Middle", "STREET": "495 Brown Ave", "CITY": "Waynesville", "ZIP": "28786", "NMCNTY": "Haywood County", "TOTAL": "21", "LAT": 35.4859, "LON": -82.9979 }, "geometry": { "type": "Point", "coordinates": [ -82.9979, 35.4859 ] } },
{ "type": "Feature", "properties": { "TYPE": "Public", "NAME": "Central Haywood High", "STREET": "3215 Broad Street", "CITY": "Clyde", "ZIP": "28721", "NMCNTY": "Haywood County", "TOTAL": "21", "LAT": 35.5346, "LON": -82.9128 }, "geometry": { "type": "Point", "coordinates": [ -82.9128, 35.5346 ] } },
{ "type": "Feature", "properties": { "TYPE": "Public", "NAME": "Jonathan Valley Elementary", "STREET": "410 Hall Drive", "CITY": "Waynesville", "ZIP": "28785", "NMCNTY": "Haywood County", "TOTAL": "21", "LAT": 35.532, "LON": -83.0313 }, "geometry": { "type": "Point", "coordinates": [ -83.0313, 35.532 ] } },
{ "type": "Feature", "properties": { "TYPE": "Public", "NAME": "Meadowbrook Elementary", "STREET": "85 Morningstar Rd", "CITY": "Canton", "ZIP": "28716", "NMCNTY": "Haywood County", "TOTAL": "21", "LAT": 35.5147, "LON": -82.8268 }, "geometry": { "type": "Point", "coordinates": [ -82.8268, 35.5147 ] } },
{ "type": "Feature", "properties": { "TYPE": "Public", "NAME": "Haywood Early College", "STREET": "185 Freedlander Drive", "CITY": "Clyde", "ZIP": "28721", "NMCNTY": "Haywood County", "TOTAL": "21", "LAT": 35.5264, "LON": -82.9278 }, "geometry": { "type": "Point", "coordinates": [ -82.9278, 35.5264 ] } },
{ "type": "Feature", "properties": { "TYPE": "PostSecondary", "NAME": "Haywood Community College", "STREET": "185 Freedlander Drive", "CITY": "Clyde", "ZIP": "28721-9901", "NMCNTY": "Haywood County", "TOTAL": "21", "LAT": 35.525905, "LON": -82.927918 }, "geometry": { "type": "Point", "coordinates": [ -82.927918, 35.525905 ] } },
{ "type": "Feature", "properties": { "TYPE": "Private", "NAME": "CAPTAIN GILMER CHRISTIAN SCHOOL", "STREET": "257 DOELGER DR", "CITY": "FLETCHER", "ZIP": "28732", "NMCNTY": "Henderson County", "TOTAL": "41", "LAT": 35.396771, "LON": -82.489913 }, "geometry": { "type": "Point", "coordinates": [ -82.489913, 35.396771 ] } },
{ "type": "Feature", "properties": { "TYPE": "Private", "NAME": "FLETCHER ACADEMY", "STREET": "185 FLETCHER ACADEMY DR", "CITY": "FLETCHER", "ZIP": "28732", "NMCNTY": "Henderson County", "TOTAL": "41", "LAT": 35.395401, "LON": -82.486243 }, "geometry": { "type": "Point", "coordinates": [ -82.486243, 35.395401 ] } },
{ "type": "Feature", "properties": { "TYPE": "Private", "NAME": "IMMACULATA CATHOLIC SCHOOL", "STREET": "711 BUNCOMBE ST", "CITY": "HENDERSONVILLE", "ZIP": "28791", "NMCNTY": "Henderson County", "TOTAL": "41", "LAT": 35.319203, "LON": -82.464229 }, "geometry": { "type": "Point", "coordinates": [ -82.464229, 35.319203 ] } },
{ "type": "Feature", "properties": { "TYPE": "Private", "NAME": "VERITAS CHRISTIAN ACADEMY", "STREET": "17 CANE CREEK RD", "CITY": "FLETCHER", "ZIP": "28732", "NMCNTY": "Henderson County", "TOTAL": "41", "LAT": 35.435688, "LON": -82.500004 }, "geometry": { "type": "Point", "coordinates": [ -82.500004, 35.435688 ] } },
{ "type": "Feature", "properties": { "TYPE": "Private", "NAME": "MONTESSORI COUNTRY DAY", "STREET": "1521 HAYWOOD RD", "CITY": "HENDERSONVILLE", "ZIP": "28791", "NMCNTY": "Henderson County", "TOTAL": "41", "LAT": 35.32776, "LON": -82.470061 }, "geometry": { "type": "Point", "coordinates": [ -82.470061, 35.32776 ] } },
{ "type": "Feature", "properties": { "TYPE": "Private", "NAME": "MUD CREEK CHRISTIAN SCHOOL", "STREET": "403 RUTLEDGE DR", "CITY": "HENDERSONVILLE", "ZIP": "28739", "NMCNTY": "Henderson County", "TOTAL": "41", "LAT": 35.291189, "LON": -82.451718 }, "geometry": { "type": "Point", "coordinates": [ -82.451718, 35.291189 ] } },
{ "type": "Feature", "properties": { "TYPE": "Private", "NAME": "LAKE HOUSE ACADEMY", "STREET": "453 LILY PAD LN", "CITY": "FLAT ROCK", "ZIP": "28731", "NMCNTY": "Henderson County", "TOTAL": "41", "LAT": 35.284448, "LON": -82.438279 }, "geometry": { "type": "Point", "coordinates": [ -82.438279, 35.284448 ] } },
{ "type": "Feature", "properties": { "TYPE": "Private", "NAME": "MILLS RIVER SEVENTH-DAY ADVENTIST  SCHOOL", "STREET": "2142 JEFFRESS RD", "CITY": "MILLS RIVER", "ZIP": "28759", "NMCNTY": "Henderson County", "TOTAL": "41", "LAT": 35.39996, "LON": -82.564221 }, "geometry": { "type": "Point", "coordinates": [ -82.564221, 35.39996 ] } },
{ "type": "Feature", "properties": { "TYPE": "Private", "NAME": "FAITH-COVENANT CHRISTIAN ACADEMY", "STREET": "1 SUMMIT CIR", "CITY": "HENDERSONVILLE", "ZIP": "28793", "NMCNTY": "Henderson County", "TOTAL": "41", "LAT": 35.311487, "LON": -82.464308 }, "geometry": { "type": "Point", "coordinates": [ -82.464308, 35.311487 ] } },
{ "type": "Feature", "properties": { "TYPE": "Private", "NAME": "UPWARD ADVENTIST SCHOOL", "STREET": "957 UPWARD RD", "CITY": "FLAT ROCK", "ZIP": "28731", "NMCNTY": "Henderson County", "TOTAL": "41", "LAT": 35.298007, "LON": -82.390983 }, "geometry": { "type": "Point", "coordinates": [ -82.390983, 35.298007 ] } },
{ "type": "Feature", "properties": { "TYPE": "Private", "NAME": "THE WAY CHRISTIAN ACADEMY", "STREET": "1315 OLD SPARTANBURG RD", "CITY": "HENDERSONVILLE", "ZIP": "28792", "NMCNTY": "Henderson County", "TOTAL": "41", "LAT": 35.302005, "LON": -82.439223 }, "geometry": { "type": "Point", "coordinates": [ -82.439223, 35.302005 ] } },
{ "type": "Feature", "properties": { "TYPE": "Private", "NAME": "ST GERARD HOUSE (GROTTO 2)", "STREET": "705 OAKLAND ST", "CITY": "HENDERSONVILLE", "ZIP": "28791", "NMCNTY": "Henderson County", "TOTAL": "41", "LAT": 35.31989, "LON": -82.465331 }, "geometry": { "type": "Point", "coordinates": [ -82.465331, 35.31989 ] } },
{ "type": "Feature", "properties": { "TYPE": "Private", "NAME": "TIMBERSONG ACADEMY - BAT CAVE", "STREET": "41 HERO'S WAY", "CITY": "HENDERSONVILLE", "ZIP": "28792", "NMCNTY": "Henderson County", "TOTAL": "41", "LAT": 35.483409, "LON": -82.319094 }, "geometry": { "type": "Point", "coordinates": [ -82.319094, 35.483409 ] } },
{ "type": "Feature", "properties": { "TYPE": "Private", "NAME": "STONEY MOUNTAIN CHRISTIAN ACADEMY", "STREET": "3301 ASHEVILLE HWY", "CITY": "HENDERSONVILLE", "ZIP": "28791", "NMCNTY": "Henderson County", "TOTAL": "41", "LAT": 35.36118, "LON": -82.482039 }, "geometry": { "type": "Point", "coordinates": [ -82.482039, 35.36118 ] } },
{ "type": "Feature", "properties": { "TYPE": "Private", "NAME": "WILD OAK INDEPENDENT SCHOOL", "STREET": "1181 BROYLES RD", "CITY": "HENDERSONVILLE", "ZIP": "28791", "NMCNTY": "Henderson County", "TOTAL": "41", "LAT": 35.348922, "LON": -82.536363 }, "geometry": { "type": "Point", "coordinates": [ -82.536363, 35.348922 ] } },
{ "type": "Feature", "properties": { "TYPE": "Public", "NAME": "The Mountain Community Sch", "STREET": "613 Glover Street", "CITY": "Hendersonville", "ZIP": "28792", "NMCNTY": "Henderson County", "TOTAL": "41", "LAT": 35.3137, "LON": -82.4418 }, "geometry": { "type": "Point", "coordinates": [ -82.4418, 35.3137 ] } },
{ "type": "Feature", "properties": { "TYPE": "Public", "NAME": "FernLeaf Community Charter School", "STREET": "58 Howard Gap Rd", "CITY": "Fletcher", "ZIP": "28732", "NMCNTY": "Henderson County", "TOTAL": "41", "LAT": 35.425644, "LON": -82.501193 }, "geometry": { "type": "Point", "coordinates": [ -82.501193, 35.425644 ] } },
{ "type": "Feature", "properties": { "TYPE": "Public", "NAME": "Apple Valley Middle", "STREET": "43 Fruitland Road", "CITY": "Hendersonville", "ZIP": "28792", "NMCNTY": "Henderson County", "TOTAL": "41", "LAT": 35.3619, "LON": -82.4219 }, "geometry": { "type": "Point", "coordinates": [ -82.4219, 35.3619 ] } },
{ "type": "Feature", "properties": { "TYPE": "Public", "NAME": "North Henderson High", "STREET": "35 Fruitland Road", "CITY": "Hendersonville", "ZIP": "28792", "NMCNTY": "Henderson County", "TOTAL": "41", "LAT": 35.361, "LON": -82.4223 }, "geometry": { "type": "Point", "coordinates": [ -82.4223, 35.361 ] } },
{ "type": "Feature", "properties": { "TYPE": "Public", "NAME": "Upward Elementary", "STREET": "45 Education Drive", "CITY": "Flat Rock", "ZIP": "28731", "NMCNTY": "Henderson County", "TOTAL": "41", "LAT": 35.295, "LON": -82.3941 }, "geometry": { "type": "Point", "coordinates": [ -82.3941, 35.295 ] } },
{ "type": "Feature", "properties": { "TYPE": "Public", "NAME": "Dana Elementary", "STREET": "690 Ridge Road", "CITY": "Hendersonville", "ZIP": "28792", "NMCNTY": "Henderson County", "TOTAL": "41", "LAT": 35.3385, "LON": -82.3735 }, "geometry": { "type": "Point", "coordinates": [ -82.3735, 35.3385 ] } },
{ "type": "Feature", "properties": { "TYPE": "Public", "NAME": "East Henderson High", "STREET": "150 Eagle Pride Drive", "CITY": "East Flat Rock", "ZIP": "28726", "NMCNTY": "Henderson County", "TOTAL": "41", "LAT": 35.297416, "LON": -82.423482 }, "geometry": { "type": "Point", "coordinates": [ -82.423482, 35.297416 ] } },
{ "type": "Feature", "properties": { "TYPE": "Public", "NAME": "Edneyville Elementary", "STREET": "2875 Pace Road", "CITY": "Hendersonville", "ZIP": "28792", "NMCNTY": "Henderson County", "TOTAL": "41", "LAT": 35.374157, "LON": -82.370953 }, "geometry": { "type": "Point", "coordinates": [ -82.370953, 35.374157 ] } },
{ "type": "Feature", "properties": { "TYPE": "Public", "NAME": "Etowah Elementary", "STREET": "320 Etowah School Road", "CITY": "Etowah", "ZIP": "28729", "NMCNTY": "Henderson County", "TOTAL": "41", "LAT": 35.3152, "LON": -82.588 }, "geometry": { "type": "Point", "coordinates": [ -82.588, 35.3152 ] } },
{ "type": "Feature", "properties": { "TYPE": "Public", "NAME": "Flat Rock Middle", "STREET": "191 Preston Lane", "CITY": "East Flat Rock", "ZIP": "28726", "NMCNTY": "Henderson County", "TOTAL": "41", "LAT": 35.2704, "LON": -82.4302 }, "geometry": { "type": "Point", "coordinates": [ -82.4302, 35.2704 ] } },
{ "type": "Feature", "properties": { "TYPE": "Public", "NAME": "Fletcher Elementary", "STREET": "500 Howard Gap Road", "CITY": "Fletcher", "ZIP": "28732", "NMCNTY": "Henderson County", "TOTAL": "41", "LAT": 35.4092, "LON": -82.4977 }, "geometry": { "type": "Point", "coordinates": [ -82.4977, 35.4092 ] } },
{ "type": "Feature", "properties": { "TYPE": "Public", "NAME": "Hillandale Elementary", "STREET": "40 Preston Lane", "CITY": "East Flat Rock", "ZIP": "28726", "NMCNTY": "Henderson County", "TOTAL": "41", "LAT": 35.27157, "LON": -82.427475 }, "geometry": { "type": "Point", "coordinates": [ -82.427475, 35.27157 ] } },
{ "type": "Feature", "properties": { "TYPE": "Public", "NAME": "Mills River Elementary", "STREET": "94 School House Road", "CITY": "Mills River", "ZIP": "28759", "NMCNTY": "Henderson County", "TOTAL": "41", "LAT": 35.377, "LON": -82.5668 }, "geometry": { "type": "Point", "coordinates": [ -82.5668, 35.377 ] } },
{ "type": "Feature", "properties": { "TYPE": "Public", "NAME": "Rugby Middle", "STREET": "3345 Haywood Road", "CITY": "Hendersonville", "ZIP": "28791", "NMCNTY": "Henderson County", "TOTAL": "41", "LAT": 35.358757, "LON": -82.514604 }, "geometry": { "type": "Point", "coordinates": [ -82.514604, 35.358757 ] } },
{ "type": "Feature", "properties": { "TYPE": "Public", "NAME": "West Henderson High", "STREET": "3600 Haywood Road", "CITY": "Hendersonville", "ZIP": "28791", "NMCNTY": "Henderson County", "TOTAL": "41", "LAT": 35.3662, "LON": -82.5152 }, "geometry": { "type": "Point", "coordinates": [ -82.5152, 35.3662 ] } },
{ "type": "Feature", "properties": { "TYPE": "Public", "NAME": "Bruce Drysdale Elementary", "STREET": "271 Bearcat Blvd.", "CITY": "Hendersonville", "ZIP": "28792", "NMCNTY": "Henderson County", "TOTAL": "41", "LAT": 35.322293, "LON": -82.461048 }, "geometry": { "type": "Point", "coordinates": [ -82.461048, 35.322293 ] } },
{ "type": "Feature", "properties": { "TYPE": "Public", "NAME": "Hendersonville High", "STREET": "1 Bearcat Boulevard", "CITY": "Hendersonville", "ZIP": "28791", "NMCNTY": "Henderson County", "TOTAL": "41", "LAT": 35.321409, "LON": -82.464217 }, "geometry": { "type": "Point", "coordinates": [ -82.464217, 35.321409 ] } },
{ "type": "Feature", "properties": { "TYPE": "Public", "NAME": "Hendersonville Middle", "STREET": "825 North Whitted Street", "CITY": "Hendersonville", "ZIP": "28791", "NMCNTY": "Henderson County", "TOTAL": "41", "LAT": 35.3219, "LON": -82.473 }, "geometry": { "type": "Point", "coordinates": [ -82.473, 35.3219 ] } },
{ "type": "Feature", "properties": { "TYPE": "Public", "NAME": "Hendersonville Elementary", "STREET": "1039 Randall Circle", "CITY": "Hendersonville", "ZIP": "28791", "NMCNTY": "Henderson County", "TOTAL": "41", "LAT": 35.3229, "LON": -82.4755 }, "geometry": { "type": "Point", "coordinates": [ -82.4755, 35.3229 ] } },
{ "type": "Feature", "properties": { "TYPE": "Public", "NAME": "Henderson County Career Academy", "STREET": "300 East Campus Drive", "CITY": "Flat Rock", "ZIP": "28731", "NMCNTY": "Henderson County", "TOTAL": "41", "LAT": 35.306667, "LON": -82.419935 }, "geometry": { "type": "Point", "coordinates": [ -82.419935, 35.306667 ] } },
{ "type": "Feature", "properties": { "TYPE": "Public", "NAME": "Atkinson Elementary", "STREET": "2510 Old Kanuga Road", "CITY": "Hendersonville", "ZIP": "28739", "NMCNTY": "Henderson County", "TOTAL": "41", "LAT": 35.284, "LON": -82.4927 }, "geometry": { "type": "Point", "coordinates": [ -82.4927, 35.284 ] } },
{ "type": "Feature", "properties": { "TYPE": "Public", "NAME": "Glenn C Marlow Elementary", "STREET": "1985 Butler Bridge Road", "CITY": "Mills River", "ZIP": "28759", "NMCNTY": "Henderson County", "TOTAL": "41", "LAT": 35.4069, "LON": -82.5467 }, "geometry": { "type": "Point", "coordinates": [ -82.5467, 35.4069 ] } },
{ "type": "Feature", "properties": { "TYPE": "Public", "NAME": "Clear Creek Elementary", "STREET": "737 N Clear Creek Road", "CITY": "Hendersonville", "ZIP": "28792", "NMCNTY": "Henderson County", "TOTAL": "41", "LAT": 35.3739, "LON": -82.4419 }, "geometry": { "type": "Point", "coordinates": [ -82.4419, 35.3739 ] } },
{ "type": "Feature", "properties": { "TYPE": "Public", "NAME": "Sugarloaf Elementary", "STREET": "2270 Sugarloaf Rd", "CITY": "Hendersonville", "ZIP": "28792", "NMCNTY": "Henderson County", "TOTAL": "41", "LAT": 35.3388, "LON": -82.4036 }, "geometry": { "type": "Point", "coordinates": [ -82.4036, 35.3388 ] } },
{ "type": "Feature", "properties": { "TYPE": "Public", "NAME": "Henderson County Early College", "STREET": "300 East Campus Drive", "CITY": "Flat Rock", "ZIP": "28731", "NMCNTY": "Henderson County", "TOTAL": "41", "LAT": 35.306667, "LON": -82.419935 }, "geometry": { "type": "Point", "coordinates": [ -82.419935, 35.306667 ] } },
{ "type": "Feature", "properties": { "TYPE": "PostSecondary", "NAME": "Blue Ridge Community College", "STREET": "180 West Campus Drive", "CITY": "Flat Rock", "ZIP": "28731-4728", "NMCNTY": "Henderson County", "TOTAL": "41", "LAT": 35.30804, "LON": -82.425544 }, "geometry": { "type": "Point", "coordinates": [ -82.425544, 35.30804 ] } },
{ "type": "Feature", "properties": { "TYPE": "Private", "NAME": "HERITAGE CHRISTIAN ACADEMY", "STREET": "1955 WEBSTER RD", "CITY": "SYLVA", "ZIP": "28779", "NMCNTY": "Jackson County", "TOTAL": "16", "LAT": 35.339708, "LON": -83.226595 }, "geometry": { "type": "Point", "coordinates": [ -83.226595, 35.339708 ] } },
{ "type": "Feature", "properties": { "TYPE": "Private", "NAME": "VICTORY CHRISTIAN SCHOOL", "STREET": "278 VICTORY CHURCH RD", "CITY": "SYLVA", "ZIP": "28779", "NMCNTY": "Jackson County", "TOTAL": "16", "LAT": 35.267557, "LON": -83.295503 }, "geometry": { "type": "Point", "coordinates": [ -83.295503, 35.267557 ] } },
{ "type": "Feature", "properties": { "TYPE": "Public", "NAME": "Summit Charter", "STREET": "370 Mitten Lane", "CITY": "Cashiers", "ZIP": "28717", "NMCNTY": "Jackson County", "TOTAL": "16", "LAT": 35.100575, "LON": -83.104183 }, "geometry": { "type": "Point", "coordinates": [ -83.104183, 35.100575 ] } },
{ "type": "Feature", "properties": { "TYPE": "Public", "NAME": "Catamount School", "STREET": "100 Smoky Mountain Dr", "CITY": "Sylva", "ZIP": "28779", "NMCNTY": "Jackson County", "TOTAL": "16", "LAT": 35.353982, "LON": -83.198216 }, "geometry": { "type": "Point", "coordinates": [ -83.198216, 35.353982 ] } },
{ "type": "Feature", "properties": { "TYPE": "Public", "NAME": "Blue Ridge School", "STREET": "95 Bobcat Drive", "CITY": "Cashiers", "ZIP": "28717", "NMCNTY": "Jackson County", "TOTAL": "16", "LAT": 35.1284, "LON": -83.1202 }, "geometry": { "type": "Point", "coordinates": [ -83.1202, 35.1284 ] } },
{ "type": "Feature", "properties": { "TYPE": "Public", "NAME": "Cullowhee Valley School", "STREET": "240 Wisdom Drive", "CITY": "Cullowhee", "ZIP": "28723", "NMCNTY": "Jackson County", "TOTAL": "16", "LAT": 35.293324, "LON": -83.181081 }, "geometry": { "type": "Point", "coordinates": [ -83.181081, 35.293324 ] } },
{ "type": "Feature", "properties": { "TYPE": "Public", "NAME": "Fairview Elementary", "STREET": "251 Big Orange Way", "CITY": "Sylva", "ZIP": "28779", "NMCNTY": "Jackson County", "TOTAL": "16", "LAT": 35.3559, "LON": -83.1947 }, "geometry": { "type": "Point", "coordinates": [ -83.1947, 35.3559 ] } },
{ "type": "Feature", "properties": { "TYPE": "Public", "NAME": "Scotts Creek Elementary", "STREET": "516 Parris Branch", "CITY": "Sylva", "ZIP": "28779", "NMCNTY": "Jackson County", "TOTAL": "16", "LAT": 35.4092, "LON": -83.1778 }, "geometry": { "type": "Point", "coordinates": [ -83.1778, 35.4092 ] } },
{ "type": "Feature", "properties": { "TYPE": "Public", "NAME": "Smoky Mountain High School", "STREET": "100 Smoky Mountain Drive", "CITY": "Sylva", "ZIP": "28779", "NMCNTY": "Jackson County", "TOTAL": "16", "LAT": 35.3536, "LON": -83.199 }, "geometry": { "type": "Point", "coordinates": [ -83.199, 35.3536 ] } },
{ "type": "Feature", "properties": { "TYPE": "Public", "NAME": "Smokey Mountain Elementary", "STREET": "884 US Hwy 441N", "CITY": "Whittier", "ZIP": "28789", "NMCNTY": "Jackson County", "TOTAL": "16", "LAT": 35.429034, "LON": -83.324101 }, "geometry": { "type": "Point", "coordinates": [ -83.324101, 35.429034 ] } },
{ "type": "Feature", "properties": { "TYPE": "Public", "NAME": "Jackson Community School", "STREET": "3770 Skyland Drive", "CITY": "Sylva", "ZIP": "28779", "NMCNTY": "Jackson County", "TOTAL": "16", "LAT": 35.4041, "LON": -83.1638 }, "geometry": { "type": "Point", "coordinates": [ -83.1638, 35.4041 ] } },
{ "type": "Feature", "properties": { "TYPE": "Public", "NAME": "Blue Ridge Early College", "STREET": "95 Bobcat Dr", "CITY": "Cashiers", "ZIP": "28717", "NMCNTY": "Jackson County", "TOTAL": "16", "LAT": 35.1287, "LON": -83.1203 }, "geometry": { "type": "Point", "coordinates": [ -83.1203, 35.1287 ] } },
{ "type": "Feature", "properties": { "TYPE": "Public", "NAME": "Jackson Co Early College", "STREET": "404 College Drive", "CITY": "Sylva", "ZIP": "28779", "NMCNTY": "Jackson County", "TOTAL": "16", "LAT": 35.3487, "LON": -83.207 }, "geometry": { "type": "Point", "coordinates": [ -83.207, 35.3487 ] } },
{ "type": "Feature", "properties": { "TYPE": "Public", "NAME": "Jackson Blended Learning Academy", "STREET": "398 Hospital Road", "CITY": "Sylva", "ZIP": "28779", "NMCNTY": "Jackson County", "TOTAL": "16", "LAT": 35.38806, "LON": -83.204224 }, "geometry": { "type": "Point", "coordinates": [ -83.204224, 35.38806 ] } },
{ "type": "Feature", "properties": { "TYPE": "PostSecondary", "NAME": "Southwestern Community College", "STREET": "447 College Drive", "CITY": "Sylva", "ZIP": "28779", "NMCNTY": "Jackson County", "TOTAL": "16", "LAT": 35.348575, "LON": -83.207129 }, "geometry": { "type": "Point", "coordinates": [ -83.207129, 35.348575 ] } },
{ "type": "Feature", "properties": { "TYPE": "PostSecondary", "NAME": "Western Carolina University", "STREET": "Highway 107", "CITY": "Cullowhee", "ZIP": "28723-9646", "NMCNTY": "Jackson County", "TOTAL": "16", "LAT": 35.308979, "LON": -83.186258 }, "geometry": { "type": "Point", "coordinates": [ -83.186258, 35.308979 ] } },
{ "type": "Feature", "properties": { "TYPE": "Private", "NAME": "MACON MULTI-PURPOSE JUVENILE HOME", "STREET": "1950 LAKESIDE DR", "CITY": "FRANKLIN", "ZIP": "28734", "NMCNTY": "Macon County", "TOTAL": "14", "LAT": 35.19612, "LON": -83.370051 }, "geometry": { "type": "Point", "coordinates": [ -83.370051, 35.19612 ] } },
{ "type": "Feature", "properties": { "TYPE": "Private", "NAME": "TRIMONT CHRISTIAN ACADEMY", "STREET": "98 PROMISE LN", "CITY": "FRANKLIN", "ZIP": "28734", "NMCNTY": "Macon County", "TOTAL": "14", "LAT": 35.17159, "LON": -83.39793 }, "geometry": { "type": "Point", "coordinates": [ -83.39793, 35.17159 ] } },
{ "type": "Feature", "properties": { "TYPE": "Public", "NAME": "Cartoogechaye Elementary", "STREET": "3295 Old Murphy Road", "CITY": "Franklin", "ZIP": "28734", "NMCNTY": "Macon County", "TOTAL": "14", "LAT": 35.1666, "LON": -83.4378 }, "geometry": { "type": "Point", "coordinates": [ -83.4378, 35.1666 ] } },
{ "type": "Feature", "properties": { "TYPE": "Public", "NAME": "East Franklin Elementary", "STREET": "100 Watauga St", "CITY": "Franklin", "ZIP": "28734", "NMCNTY": "Macon County", "TOTAL": "14", "LAT": 35.1894, "LON": -83.3714 }, "geometry": { "type": "Point", "coordinates": [ -83.3714, 35.1894 ] } },
{ "type": "Feature", "properties": { "TYPE": "Public", "NAME": "Franklin High", "STREET": "100 Panther Drive", "CITY": "Franklin", "ZIP": "28734", "NMCNTY": "Macon County", "TOTAL": "14", "LAT": 35.1768, "LON": -83.3821 }, "geometry": { "type": "Point", "coordinates": [ -83.3821, 35.1768 ] } },
{ "type": "Feature", "properties": { "TYPE": "Public", "NAME": "Highlands School", "STREET": "545 Pierson Dr", "CITY": "Highlands", "ZIP": "28741", "NMCNTY": "Macon County", "TOTAL": "14", "LAT": 35.047, "LON": -83.1967 }, "geometry": { "type": "Point", "coordinates": [ -83.1967, 35.047 ] } },
{ "type": "Feature", "properties": { "TYPE": "Public", "NAME": "Iotla Valley Elementary", "STREET": "1166 Iotla Church Road", "CITY": "Franklin", "ZIP": "28734", "NMCNTY": "Macon County", "TOTAL": "14", "LAT": 35.2276, "LON": -83.4157 }, "geometry": { "type": "Point", "coordinates": [ -83.4157, 35.2276 ] } },
{ "type": "Feature", "properties": { "TYPE": "Public", "NAME": "Macon Middle School", "STREET": "1345 Wells Grove Rd", "CITY": "Franklin", "ZIP": "28734", "NMCNTY": "Macon County", "TOTAL": "14", "LAT": 35.1627, "LON": -83.3591 }, "geometry": { "type": "Point", "coordinates": [ -83.3591, 35.1627 ] } },
{ "type": "Feature", "properties": { "TYPE": "Public", "NAME": "Nantahala School", "STREET": "213 Windingstairs Rd", "CITY": "Topton", "ZIP": "28781", "NMCNTY": "Macon County", "TOTAL": "14", "LAT": 35.2535, "LON": -83.6342 }, "geometry": { "type": "Point", "coordinates": [ -83.6342, 35.2535 ] } },
{ "type": "Feature", "properties": { "TYPE": "Public", "NAME": "South Macon Elementary", "STREET": "855 Addington Bridge Road", "CITY": "Franklin", "ZIP": "28734", "NMCNTY": "Macon County", "TOTAL": "14", "LAT": 35.1134, "LON": -83.3996 }, "geometry": { "type": "Point", "coordinates": [ -83.3996, 35.1134 ] } },
{ "type": "Feature", "properties": { "TYPE": "Public", "NAME": "Macon Early College High School", "STREET": "77 Siler Farm Road", "CITY": "Franklin", "ZIP": "28734", "NMCNTY": "Macon County", "TOTAL": "14", "LAT": 35.160468, "LON": -83.381534 }, "geometry": { "type": "Point", "coordinates": [ -83.381534, 35.160468 ] } },
{ "type": "Feature", "properties": { "TYPE": "Public", "NAME": "Union Academy", "STREET": "158 Union School Rd", "CITY": "Franklin", "ZIP": "28734", "NMCNTY": "Macon County", "TOTAL": "14", "LAT": 35.1168, "LON": -83.3993 }, "geometry": { "type": "Point", "coordinates": [ -83.3993, 35.1168 ] } },
{ "type": "Feature", "properties": { "TYPE": "Public", "NAME": "Mountain View Intermediate", "STREET": "161 Clarks Chapel Road", "CITY": "Franklin", "ZIP": "28734", "NMCNTY": "Macon County", "TOTAL": "14", "LAT": 35.1627, "LON": -83.3621 }, "geometry": { "type": "Point", "coordinates": [ -83.3621, 35.1627 ] } },
{ "type": "Feature", "properties": { "TYPE": "Public", "NAME": "Macon Virtual Academy", "STREET": "1202 Old Murphy  Rd", "CITY": "Franklin", "ZIP": "28734", "NMCNTY": "Macon County", "TOTAL": "14", "LAT": 35.171824, "LON": -83.401588 }, "geometry": { "type": "Point", "coordinates": [ -83.401588, 35.171824 ] } },
{ "type": "Feature", "properties": { "TYPE": "Private", "NAME": "WOLF CREEK ACADEMY", "STREET": "41 BEAUTY SPOT COVE", "CITY": "MARS HILL", "ZIP": "28754", "NMCNTY": "Madison County", "TOTAL": "10", "LAT": 35.941001, "LON": -82.528489 }, "geometry": { "type": "Point", "coordinates": [ -82.528489, 35.941001 ] } },
{ "type": "Feature", "properties": { "TYPE": "Private", "NAME": "CHANGING HEARTS BOARDING SCHOOL", "STREET": "3005 ANDERSON BRANCH RD", "CITY": "MARSHALL", "ZIP": "28753", "NMCNTY": "Madison County", "TOTAL": "10", "LAT": 35.813526, "LON": -82.741359 }, "geometry": { "type": "Point", "coordinates": [ -82.741359, 35.813526 ] } },
{ "type": "Feature", "properties": { "TYPE": "Public", "NAME": "Madison Middle School", "STREET": "95 Upper Brush Creek Rd", "CITY": "Marshall", "ZIP": "28753", "NMCNTY": "Madison County", "TOTAL": "10", "LAT": 35.8403, "LON": -82.7162 }, "geometry": { "type": "Point", "coordinates": [ -82.7162, 35.8403 ] } },
{ "type": "Feature", "properties": { "TYPE": "Public", "NAME": "Hot Springs Elementary", "STREET": "63 Serpentine Ave", "CITY": "Hot Springs", "ZIP": "28743", "NMCNTY": "Madison County", "TOTAL": "10", "LAT": 35.8922, "LON": -82.8323 }, "geometry": { "type": "Point", "coordinates": [ -82.8323, 35.8922 ] } },
{ "type": "Feature", "properties": { "TYPE": "Public", "NAME": "Madison High School", "STREET": "5740 US Hwy 25-70", "CITY": "Marshall", "ZIP": "28753", "NMCNTY": "Madison County", "TOTAL": "10", "LAT": 35.8152, "LON": -82.6734 }, "geometry": { "type": "Point", "coordinates": [ -82.6734, 35.8152 ] } },
{ "type": "Feature", "properties": { "TYPE": "Public", "NAME": "Mars Hill Elementary", "STREET": "200 School House Lane", "CITY": "Mars Hill", "ZIP": "28754", "NMCNTY": "Madison County", "TOTAL": "10", "LAT": 35.8345, "LON": -82.5526 }, "geometry": { "type": "Point", "coordinates": [ -82.5526, 35.8345 ] } },
{ "type": "Feature", "properties": { "TYPE": "Public", "NAME": "Brush Creek Elementary", "STREET": "265 Upper Brush Creek Road", "CITY": "Marshall", "ZIP": "28753", "NMCNTY": "Madison County", "TOTAL": "10", "LAT": 35.841438, "LON": -82.7143 }, "geometry": { "type": "Point", "coordinates": [ -82.7143, 35.841438 ] } },
{ "type": "Feature", "properties": { "TYPE": "Public", "NAME": "Madison Early College High", "STREET": "5734 US 25\/70 Hwy", "CITY": "Marshall", "ZIP": "28753", "NMCNTY": "Madison County", "TOTAL": "10", "LAT": 35.815468, "LON": -82.675351 }, "geometry": { "type": "Point", "coordinates": [ -82.675351, 35.815468 ] } },
{ "type": "Feature", "properties": { "TYPE": "Public", "NAME": "Madison Velocity Learning Center", "STREET": "5740 US Hwy 25\/70", "CITY": "Marshall", "ZIP": "28753", "NMCNTY": "Madison County", "TOTAL": "10", "LAT": 35.81507, "LON": -82.673136 }, "geometry": { "type": "Point", "coordinates": [ -82.673136, 35.81507 ] } },
{ "type": "Feature", "properties": { "TYPE": "PostSecondary", "NAME": "Mars Hill University", "STREET": "100 Athletic St", "CITY": "Mars Hill", "ZIP": "28754", "NMCNTY": "Madison County", "TOTAL": "10", "LAT": 35.82752, "LON": -82.551827 }, "geometry": { "type": "Point", "coordinates": [ -82.551827, 35.82752 ] } },
{ "type": "Feature", "properties": { "TYPE": "Private", "NAME": "NEW MANNA CHRISTIAN SCHOOL", "STREET": "225 E CT ST", "CITY": "MARION", "ZIP": "28752", "NMCNTY": "McDowell County", "TOTAL": "17", "LAT": 35.687668, "LON": -82.006349 }, "geometry": { "type": "Point", "coordinates": [ -82.006349, 35.687668 ] } },
{ "type": "Feature", "properties": { "TYPE": "Public", "NAME": "East McDowell Middle School", "STREET": "676 State Street", "CITY": "Marion", "ZIP": "28752", "NMCNTY": "McDowell County", "TOTAL": "17", "LAT": 35.6871, "LON": -81.9961 }, "geometry": { "type": "Point", "coordinates": [ -81.9961, 35.6871 ] } },
{ "type": "Feature", "properties": { "TYPE": "Public", "NAME": "Eastfield Global Magnet School", "STREET": "170 Eastfield School Road", "CITY": "Marion", "ZIP": "28752", "NMCNTY": "McDowell County", "TOTAL": "17", "LAT": 35.6862, "LON": -81.9863 }, "geometry": { "type": "Point", "coordinates": [ -81.9863, 35.6862 ] } },
{ "type": "Feature", "properties": { "TYPE": "Public", "NAME": "Glenwood Elementary School", "STREET": "1545 Old Hwy 221 South", "CITY": "Marion", "ZIP": "28752", "NMCNTY": "McDowell County", "TOTAL": "17", "LAT": 35.613333, "LON": -81.981136 }, "geometry": { "type": "Point", "coordinates": [ -81.981136, 35.613333 ] } },
{ "type": "Feature", "properties": { "TYPE": "Public", "NAME": "Marion Elementary School", "STREET": "209 Robert Street", "CITY": "Marion", "ZIP": "28752", "NMCNTY": "McDowell County", "TOTAL": "17", "LAT": 35.691, "LON": -82.0067 }, "geometry": { "type": "Point", "coordinates": [ -82.0067, 35.691 ] } },
{ "type": "Feature", "properties": { "TYPE": "Public", "NAME": "McDowell High School", "STREET": "600 McDowell High School Dr", "CITY": "Marion", "ZIP": "28752", "NMCNTY": "McDowell County", "TOTAL": "17", "LAT": 35.6964, "LON": -82.0367 }, "geometry": { "type": "Point", "coordinates": [ -82.0367, 35.6964 ] } },
{ "type": "Feature", "properties": { "TYPE": "Public", "NAME": "Nebo Elementary School", "STREET": "254 Nebo School Road", "CITY": "Nebo", "ZIP": "28761", "NMCNTY": "McDowell County", "TOTAL": "17", "LAT": 35.715, "LON": -81.9292 }, "geometry": { "type": "Point", "coordinates": [ -81.9292, 35.715 ] } },
{ "type": "Feature", "properties": { "TYPE": "Public", "NAME": "North Cove Elementary School", "STREET": "401 American Thread Road", "CITY": "Marion", "ZIP": "28752", "NMCNTY": "McDowell County", "TOTAL": "17", "LAT": 35.7895, "LON": -82.0342 }, "geometry": { "type": "Point", "coordinates": [ -82.0342, 35.7895 ] } },
{ "type": "Feature", "properties": { "TYPE": "Public", "NAME": "Old Fort Elementary School", "STREET": "128 Mauney Avenue", "CITY": "Old Fort", "ZIP": "28762", "NMCNTY": "McDowell County", "TOTAL": "17", "LAT": 35.6258, "LON": -82.1791 }, "geometry": { "type": "Point", "coordinates": [ -82.1791, 35.6258 ] } },
{ "type": "Feature", "properties": { "TYPE": "Public", "NAME": "Pleasant Gardens Elementary School", "STREET": "100 John Roach Drive", "CITY": "Marion", "ZIP": "28752", "NMCNTY": "McDowell County", "TOTAL": "17", "LAT": 35.69204, "LON": -82.07093 }, "geometry": { "type": "Point", "coordinates": [ -82.07093, 35.69204 ] } },
{ "type": "Feature", "properties": { "TYPE": "Public", "NAME": "West Marion Elementary School", "STREET": "820 Marler Road", "CITY": "Marion", "ZIP": "28752", "NMCNTY": "McDowell County", "TOTAL": "17", "LAT": 35.6211, "LON": -82.0611 }, "geometry": { "type": "Point", "coordinates": [ -82.0611, 35.6211 ] } },
{ "type": "Feature", "properties": { "TYPE": "Public", "NAME": "West McDowell Middle School", "STREET": "346 West McDowell Junior High", "CITY": "Marion", "ZIP": "28752", "NMCNTY": "McDowell County", "TOTAL": "17", "LAT": 35.7003, "LON": -82.0403 }, "geometry": { "type": "Point", "coordinates": [ -82.0403, 35.7003 ] } },
{ "type": "Feature", "properties": { "TYPE": "Public", "NAME": "McDowell Early College", "STREET": "54 College Drive", "CITY": "Marion", "ZIP": "28752", "NMCNTY": "McDowell County", "TOTAL": "17", "LAT": 35.656196, "LON": -81.962127 }, "geometry": { "type": "Point", "coordinates": [ -81.962127, 35.656196 ] } },
{ "type": "Feature", "properties": { "TYPE": "Public", "NAME": "Foothills Community School", "STREET": "176 Lukin Street", "CITY": "Marion", "ZIP": "28752", "NMCNTY": "McDowell County", "TOTAL": "17", "LAT": 35.659692, "LON": -82.027692 }, "geometry": { "type": "Point", "coordinates": [ -82.027692, 35.659692 ] } },
{ "type": "Feature", "properties": { "TYPE": "Public", "NAME": "McDowell Academy for Innovation", "STREET": "54 College Drive", "CITY": "Marion", "ZIP": "28752", "NMCNTY": "McDowell County", "TOTAL": "17", "LAT": 35.656196, "LON": -81.962127 }, "geometry": { "type": "Point", "coordinates": [ -81.962127, 35.656196 ] } },
{ "type": "Feature", "properties": { "TYPE": "Public", "NAME": "McDowell Virtual Academy", "STREET": "176 Lukin Street", "CITY": "Marion", "ZIP": "28752", "NMCNTY": "McDowell County", "TOTAL": "17", "LAT": 35.7003, "LON": -82.0403 }, "geometry": { "type": "Point", "coordinates": [ -82.0403, 35.7003 ] } },
{ "type": "Feature", "properties": { "TYPE": "PostSecondary", "NAME": "McDowell Technical Community College", "STREET": "54 College Drive", "CITY": "Marion", "ZIP": "28752-8728", "NMCNTY": "McDowell County", "TOTAL": "17", "LAT": 35.656254, "LON": -81.96208 }, "geometry": { "type": "Point", "coordinates": [ -81.96208, 35.656254 ] } },
{ "type": "Feature", "properties": { "TYPE": "Private", "NAME": "TRI-COUNTY CHRISTIAN SCHOOL", "STREET": "207 PINEBRIDGE AVE", "CITY": "SPRUCE PINE", "ZIP": "28777", "NMCNTY": "Mitchell County", "TOTAL": "8", "LAT": 35.912581, "LON": -82.068527 }, "geometry": { "type": "Point", "coordinates": [ -82.068527, 35.912581 ] } },
{ "type": "Feature", "properties": { "TYPE": "Private", "NAME": "SPRUCE PINE MONTESSORI SCHOOL", "STREET": "67 WALNUT AVE", "CITY": "SPRUCE PINE", "ZIP": "28777", "NMCNTY": "Mitchell County", "TOTAL": "8", "LAT": 35.91656, "LON": -82.067214 }, "geometry": { "type": "Point", "coordinates": [ -82.067214, 35.91656 ] } },
{ "type": "Feature", "properties": { "TYPE": "Public", "NAME": "Bowman Middle", "STREET": "410 S Mitchell Avenue", "CITY": "Bakersville", "ZIP": "28705", "NMCNTY": "Mitchell County", "TOTAL": "8", "LAT": 36.01024, "LON": -82.15545 }, "geometry": { "type": "Point", "coordinates": [ -82.15545, 36.01024 ] } },
{ "type": "Feature", "properties": { "TYPE": "Public", "NAME": "Deyton Elementary", "STREET": "308 Harris Street", "CITY": "Spruce Pine", "ZIP": "28777", "NMCNTY": "Mitchell County", "TOTAL": "8", "LAT": 35.9096, "LON": -82.0882 }, "geometry": { "type": "Point", "coordinates": [ -82.0882, 35.9096 ] } },
{ "type": "Feature", "properties": { "TYPE": "Public", "NAME": "Gouge Elementary", "STREET": "134 Laurel Street", "CITY": "Bakersville", "ZIP": "28705", "NMCNTY": "Mitchell County", "TOTAL": "8", "LAT": 36.012998, "LON": -82.151924 }, "geometry": { "type": "Point", "coordinates": [ -82.151924, 36.012998 ] } },
{ "type": "Feature", "properties": { "TYPE": "Public", "NAME": "Harris Middle", "STREET": "121 Harris Street", "CITY": "Spruce Pine", "ZIP": "28777", "NMCNTY": "Mitchell County", "TOTAL": "8", "LAT": 35.9095, "LON": -82.0849 }, "geometry": { "type": "Point", "coordinates": [ -82.0849, 35.9095 ] } },
{ "type": "Feature", "properties": { "TYPE": "Public", "NAME": "Mitchell High", "STREET": "416 Ledger School Rd", "CITY": "Bakersville", "ZIP": "28705", "NMCNTY": "Mitchell County", "TOTAL": "8", "LAT": 35.9709, "LON": -82.1174 }, "geometry": { "type": "Point", "coordinates": [ -82.1174, 35.9709 ] } },
{ "type": "Feature", "properties": { "TYPE": "Public", "NAME": "Greenlee Primary", "STREET": "2206 Carters Ridge Road", "CITY": "Spruce Pine", "ZIP": "28777", "NMCNTY": "Mitchell County", "TOTAL": "8", "LAT": 35.8843, "LON": -82.0532 }, "geometry": { "type": "Point", "coordinates": [ -82.0532, 35.8843 ] } },
{ "type": "Feature", "properties": { "TYPE": "Public", "NAME": "Polk Central Elementary School", "STREET": "2141 South NC9 Hwy", "CITY": "Mill Spring", "ZIP": "28756", "NMCNTY": "Polk County", "TOTAL": "7", "LAT": 35.288122, "LON": -82.127839 }, "geometry": { "type": "Point", "coordinates": [ -82.127839, 35.288122 ] } },
{ "type": "Feature", "properties": { "TYPE": "Public", "NAME": "Polk County High School", "STREET": "1681 East NC 108 Hwy", "CITY": "Columbus", "ZIP": "28722", "NMCNTY": "Polk County", "TOTAL": "7", "LAT": 35.2656, "LON": -82.1852 }, "geometry": { "type": "Point", "coordinates": [ -82.1852, 35.2656 ] } },
{ "type": "Feature", "properties": { "TYPE": "Public", "NAME": "Saluda Elementary School", "STREET": "214 E Main Street", "CITY": "Saluda", "ZIP": "28773", "NMCNTY": "Polk County", "TOTAL": "7", "LAT": 35.23674, "LON": -82.344351 }, "geometry": { "type": "Point", "coordinates": [ -82.344351, 35.23674 ] } },
{ "type": "Feature", "properties": { "TYPE": "Public", "NAME": "Sunny View Elementary School", "STREET": "86 Sunny View School Road", "CITY": "Mill Spring", "ZIP": "28756", "NMCNTY": "Polk County", "TOTAL": "7", "LAT": 35.3713, "LON": -82.1831 }, "geometry": { "type": "Point", "coordinates": [ -82.1831, 35.3713 ] } },
{ "type": "Feature", "properties": { "TYPE": "Public", "NAME": "Tryon Elementary School", "STREET": "100 School Place", "CITY": "Tryon", "ZIP": "28782", "NMCNTY": "Polk County", "TOTAL": "7", "LAT": 35.2142, "LON": -82.2433 }, "geometry": { "type": "Point", "coordinates": [ -82.2433, 35.2142 ] } },
{ "type": "Feature", "properties": { "TYPE": "Public", "NAME": "Polk County Middle School", "STREET": "321 Wolverine Trail", "CITY": "Mill Spring", "ZIP": "28756", "NMCNTY": "Polk County", "TOTAL": "7", "LAT": 35.298, "LON": -82.1728 }, "geometry": { "type": "Point", "coordinates": [ -82.1728, 35.298 ] } },
{ "type": "Feature", "properties": { "TYPE": "Public", "NAME": "Polk County Early College", "STREET": "1545 East NC 108 Hwy", "CITY": "Columbus", "ZIP": "28722", "NMCNTY": "Polk County", "TOTAL": "7", "LAT": 35.263799, "LON": -82.183293 }, "geometry": { "type": "Point", "coordinates": [ -82.183293, 35.263799 ] } },
{ "type": "Feature", "properties": { "TYPE": "Private", "NAME": "GLENWOOD CHRISTIAN ACADEMY", "STREET": "461 BOSTIC SUNSHINE HWY", "CITY": "BOSTIC", "ZIP": "28018", "NMCNTY": "Rutherford County", "TOTAL": "25", "LAT": 35.342975, "LON": -81.837475 }, "geometry": { "type": "Point", "coordinates": [ -81.837475, 35.342975 ] } },
{ "type": "Feature", "properties": { "TYPE": "Private", "NAME": "NEW BEGINNINGS CHRISTIAN SCHOOL", "STREET": "6495 HUDLOW RD", "CITY": "UNION MILLS", "ZIP": "28167", "NMCNTY": "Rutherford County", "TOTAL": "25", "LAT": 35.491437, "LON": -81.969269 }, "geometry": { "type": "Point", "coordinates": [ -81.969269, 35.491437 ] } },
{ "type": "Feature", "properties": { "TYPE": "Private", "NAME": "PINE RIDGE MENNONITE SCHOOL", "STREET": "1010 ELLIOTT RD", "CITY": "RUTHERFORDTON", "ZIP": "28139", "NMCNTY": "Rutherford County", "TOTAL": "25", "LAT": 35.45657, "LON": -82.035643 }, "geometry": { "type": "Point", "coordinates": [ -82.035643, 35.45657 ] } },
{ "type": "Feature", "properties": { "TYPE": "Private", "NAME": "WORD OF FAITH CHRISTIAN SCHOOL", "STREET": "207 OLD FLYNN RD", "CITY": "SPINDALE", "ZIP": "28160", "NMCNTY": "Rutherford County", "TOTAL": "25", "LAT": 35.34073, "LON": -81.922388 }, "geometry": { "type": "Point", "coordinates": [ -81.922388, 35.34073 ] } },
{ "type": "Feature", "properties": { "TYPE": "Public", "NAME": "Thomas Jefferson Class Academy", "STREET": "2527 US 221A Hwy", "CITY": "Mooresboro", "ZIP": "28114", "NMCNTY": "Rutherford County", "TOTAL": "25", "LAT": 35.2739, "LON": -81.7951 }, "geometry": { "type": "Point", "coordinates": [ -81.7951, 35.2739 ] } },
{ "type": "Feature", "properties": { "TYPE": "Public", "NAME": "Lake Lure Classical Academy", "STREET": "1058 Island Creek Rd.", "CITY": "Lake Lure", "ZIP": "28746", "NMCNTY": "Rutherford County", "TOTAL": "25", "LAT": 35.407598, "LON": -82.1927 }, "geometry": { "type": "Point", "coordinates": [ -82.1927, 35.407598 ] } },
{ "type": "Feature", "properties": { "TYPE": "Public", "NAME": "Forrest W. Hunt Elementary School", "STREET": "100 Forrest Hunt Drive", "CITY": "Forest City", "ZIP": "28043", "NMCNTY": "Rutherford County", "TOTAL": "25", "LAT": 35.3016, "LON": -81.8511 }, "geometry": { "type": "Point", "coordinates": [ -81.8511, 35.3016 ] } },
{ "type": "Feature", "properties": { "TYPE": "Public", "NAME": "R-S Middle School", "STREET": "545 Charlotte Rd", "CITY": "Rutherfordton", "ZIP": "28139", "NMCNTY": "Rutherford County", "TOTAL": "25", "LAT": 35.3657, "LON": -81.9445 }, "geometry": { "type": "Point", "coordinates": [ -81.9445, 35.3657 ] } },
{ "type": "Feature", "properties": { "TYPE": "Public", "NAME": "Chase Middle School", "STREET": "840 Chase High Rd", "CITY": "Forest City", "ZIP": "28043", "NMCNTY": "Rutherford County", "TOTAL": "25", "LAT": 35.2702, "LON": -81.8461 }, "geometry": { "type": "Point", "coordinates": [ -81.8461, 35.2702 ] } },
{ "type": "Feature", "properties": { "TYPE": "Public", "NAME": "Chase High School", "STREET": "1603 Chase High Rd", "CITY": "Forest City", "ZIP": "28043", "NMCNTY": "Rutherford County", "TOTAL": "25", "LAT": 35.2506, "LON": -81.8427 }, "geometry": { "type": "Point", "coordinates": [ -81.8427, 35.2506 ] } },
{ "type": "Feature", "properties": { "TYPE": "Public", "NAME": "Cliffside Elementary School", "STREET": "4016 US Hwy 221-A", "CITY": "Cliffside", "ZIP": "28024", "NMCNTY": "Rutherford County", "TOTAL": "25", "LAT": 35.246971, "LON": -81.768411 }, "geometry": { "type": "Point", "coordinates": [ -81.768411, 35.246971 ] } },
{ "type": "Feature", "properties": { "TYPE": "Public", "NAME": "Forest City-Dunbar Elementary School", "STREET": "286 Learning Parkway", "CITY": "Forest City", "ZIP": "28043", "NMCNTY": "Rutherford County", "TOTAL": "25", "LAT": 35.3476, "LON": -81.8744 }, "geometry": { "type": "Point", "coordinates": [ -81.8744, 35.3476 ] } },
{ "type": "Feature", "properties": { "TYPE": "Public", "NAME": "East Rutherford High School", "STREET": "331 East High Rd", "CITY": "Bostic", "ZIP": "28018", "NMCNTY": "Rutherford County", "TOTAL": "25", "LAT": 35.340594, "LON": -81.818253 }, "geometry": { "type": "Point", "coordinates": [ -81.818253, 35.340594 ] } },
{ "type": "Feature", "properties": { "TYPE": "Public", "NAME": "Ellenboro Elementary School", "STREET": "813 Piney Mountain Church Rd", "CITY": "Ellenboro", "ZIP": "28040", "NMCNTY": "Rutherford County", "TOTAL": "25", "LAT": 35.3514, "LON": -81.7736 }, "geometry": { "type": "Point", "coordinates": [ -81.7736, 35.3514 ] } },
{ "type": "Feature", "properties": { "TYPE": "Public", "NAME": "Harris Elementary School", "STREET": "3330 US 221 S Hwy", "CITY": "Forest City", "ZIP": "28043", "NMCNTY": "Rutherford County", "TOTAL": "25", "LAT": 35.273641, "LON": -81.898228 }, "geometry": { "type": "Point", "coordinates": [ -81.898228, 35.273641 ] } },
{ "type": "Feature", "properties": { "TYPE": "Public", "NAME": "Mt. Vernon-Ruth Elementary School", "STREET": "2785 Hudlow Road", "CITY": "Forest City", "ZIP": "28043", "NMCNTY": "Rutherford County", "TOTAL": "25", "LAT": 35.4117, "LON": -81.9125 }, "geometry": { "type": "Point", "coordinates": [ -81.9125, 35.4117 ] } },
{ "type": "Feature", "properties": { "TYPE": "Public", "NAME": "East Rutherford Middle School", "STREET": "259 East Church Street", "CITY": "Bostic", "ZIP": "28018", "NMCNTY": "Rutherford County", "TOTAL": "25", "LAT": 35.3614, "LON": -81.8307 }, "geometry": { "type": "Point", "coordinates": [ -81.8307, 35.3614 ] } },
{ "type": "Feature", "properties": { "TYPE": "Public", "NAME": "Rutherfordton Elementary School", "STREET": "201 Bob Hardin Road", "CITY": "Rutherfordton", "ZIP": "28139", "NMCNTY": "Rutherford County", "TOTAL": "25", "LAT": 35.334574, "LON": -81.973112 }, "geometry": { "type": "Point", "coordinates": [ -81.973112, 35.334574 ] } },
{ "type": "Feature", "properties": { "TYPE": "Public", "NAME": "R-S Central High School", "STREET": "641 Hwy 221 North", "CITY": "Rutherfordton", "ZIP": "28139", "NMCNTY": "Rutherford County", "TOTAL": "25", "LAT": 35.402634, "LON": -81.967691 }, "geometry": { "type": "Point", "coordinates": [ -81.967691, 35.402634 ] } },
{ "type": "Feature", "properties": { "TYPE": "Public", "NAME": "Spindale Elementary School", "STREET": "161 N Oak St", "CITY": "Spindale", "ZIP": "28160", "NMCNTY": "Rutherford County", "TOTAL": "25", "LAT": 35.3602, "LON": -81.9335 }, "geometry": { "type": "Point", "coordinates": [ -81.9335, 35.3602 ] } },
{ "type": "Feature", "properties": { "TYPE": "Public", "NAME": "Sunshine Elementary School", "STREET": "231 Toney Road", "CITY": "Bostic", "ZIP": "28018", "NMCNTY": "Rutherford County", "TOTAL": "25", "LAT": 35.4522, "LON": -81.8118 }, "geometry": { "type": "Point", "coordinates": [ -81.8118, 35.4522 ] } },
{ "type": "Feature", "properties": { "TYPE": "Public", "NAME": "Pinnacle Elementary School", "STREET": "1204 Painters Gap Road", "CITY": "Rutherfordton", "ZIP": "28139", "NMCNTY": "Rutherford County", "TOTAL": "25", "LAT": 35.4658, "LON": -82.0075 }, "geometry": { "type": "Point", "coordinates": [ -82.0075, 35.4658 ] } },
{ "type": "Feature", "properties": { "TYPE": "Public", "NAME": "Rutherford Opportunity Center", "STREET": "140 Old Caroleen Road", "CITY": "Forest City", "ZIP": "28043", "NMCNTY": "Rutherford County", "TOTAL": "25", "LAT": 35.32976, "LON": -81.85805 }, "geometry": { "type": "Point", "coordinates": [ -81.85805, 35.32976 ] } },
{ "type": "Feature", "properties": { "TYPE": "Public", "NAME": "Rutherford Early College High School", "STREET": "286 ICC Loop Road", "CITY": "Spindale", "ZIP": "28160", "NMCNTY": "Rutherford County", "TOTAL": "25", "LAT": 35.33471, "LON": -81.913687 }, "geometry": { "type": "Point", "coordinates": [ -81.913687, 35.33471 ] } },
{ "type": "Feature", "properties": { "TYPE": "PostSecondary", "NAME": "Isothermal Community College", "STREET": "286 ICC Loop Road", "CITY": "Spindale", "ZIP": "28160-0804", "NMCNTY": "Rutherford County", "TOTAL": "25", "LAT": 35.336728, "LON": -81.911857 }, "geometry": { "type": "Point", "coordinates": [ -81.911857, 35.336728 ] } },
{ "type": "Feature", "properties": { "TYPE": "Private", "NAME": "NEW KITUWAH ACADEMY", "STREET": "60 WATER DAM RD", "CITY": "CHEROKEE", "ZIP": "28719", "NMCNTY": "Swain County", "TOTAL": "10", "LAT": 35.501034, "LON": -83.310545 }, "geometry": { "type": "Point", "coordinates": [ -83.310545, 35.501034 ] } },
{ "type": "Feature", "properties": { "TYPE": "Private", "NAME": "GRACE CHRISTIAN ACADEMY", "STREET": "498 ARLINGTON AVE", "CITY": "BRYSON CITY", "ZIP": "28713", "NMCNTY": "Swain County", "TOTAL": "10", "LAT": 35.420356, "LON": -83.446828 }, "geometry": { "type": "Point", "coordinates": [ -83.446828, 35.420356 ] } },
{ "type": "Feature", "properties": { "TYPE": "Public", "NAME": "Mountain Discovery", "STREET": "890 Jenkins Branch Rd N", "CITY": "Bryson City", "ZIP": "28713", "NMCNTY": "Swain County", "TOTAL": "10", "LAT": 35.4137, "LON": -83.4518 }, "geometry": { "type": "Point", "coordinates": [ -83.4518, 35.4137 ] } },
{ "type": "Feature", "properties": { "TYPE": "Public", "NAME": "Swain County High School", "STREET": "1415 Fontana Road", "CITY": "Bryson City", "ZIP": "28713", "NMCNTY": "Swain County", "TOTAL": "10", "LAT": 35.4473, "LON": -83.4568 }, "geometry": { "type": "Point", "coordinates": [ -83.4568, 35.4473 ] } },
{ "type": "Feature", "properties": { "TYPE": "Public", "NAME": "Cherokee Extension School", "STREET": "50 Main Street", "CITY": "Bryson City", "ZIP": "28713", "NMCNTY": "Swain County", "TOTAL": "10", "LAT": 35.42615, "LON": -83.446842 }, "geometry": { "type": "Point", "coordinates": [ -83.446842, 35.42615 ] } },
{ "type": "Feature", "properties": { "TYPE": "Public", "NAME": "Swain County Middle School", "STREET": "135 Arlington Ave", "CITY": "Bryson City", "ZIP": "28713", "NMCNTY": "Swain County", "TOTAL": "10", "LAT": 35.4233, "LON": -83.4487 }, "geometry": { "type": "Point", "coordinates": [ -83.4487, 35.4233 ] } },
{ "type": "Feature", "properties": { "TYPE": "Public", "NAME": "Swain County East Elementary", "STREET": "4747 Ela Rd", "CITY": "Bryson City", "ZIP": "28713", "NMCNTY": "Swain County", "TOTAL": "10", "LAT": 35.4536, "LON": -83.3884 }, "geometry": { "type": "Point", "coordinates": [ -83.3884, 35.4536 ] } },
{ "type": "Feature", "properties": { "TYPE": "Public", "NAME": "Swain County West Elementary", "STREET": "4142 Hwy 19 West", "CITY": "Bryson City", "ZIP": "28713", "NMCNTY": "Swain County", "TOTAL": "10", "LAT": 35.388, "LON": -83.4878 }, "geometry": { "type": "Point", "coordinates": [ -83.4878, 35.388 ] } },
{ "type": "Feature", "properties": { "TYPE": "Public", "NAME": "Cherokee Central Elementary School", "STREET": "130 Ravensford Drive", "CITY": "Cherokee", "ZIP": "28719", "NMCNTY": "Swain County", "TOTAL": "10", "LAT": 35.512416, "LON": -83.296951 }, "geometry": { "type": "Point", "coordinates": [ -83.296951, 35.512416 ] } },
{ "type": "Feature", "properties": { "TYPE": "Public", "NAME": "Cherokee Central High School", "STREET": "200 Ravensford Drive", "CITY": "Cherokee", "ZIP": "28719", "NMCNTY": "Swain County", "TOTAL": "10", "LAT": 35.512416, "LON": -83.296951 }, "geometry": { "type": "Point", "coordinates": [ -83.296951, 35.512416 ] } },
{ "type": "Feature", "properties": { "TYPE": "Private", "NAME": "THE OUTDOOR ACADEMY", "STREET": "43 HART RD", "CITY": "PISGAH FOREST", "ZIP": "28768", "NMCNTY": "Transylvania County", "TOTAL": "14", "LAT": 35.250005, "LON": -82.647501 }, "geometry": { "type": "Point", "coordinates": [ -82.647501, 35.250005 ] } },
{ "type": "Feature", "properties": { "TYPE": "Private", "NAME": "ANCHOR BAPTIST ACADEMY", "STREET": "3232 HENDERSONVILLE HWY", "CITY": "PISGAH FOREST", "ZIP": "28768", "NMCNTY": "Transylvania County", "TOTAL": "14", "LAT": 35.272696, "LON": -82.647673 }, "geometry": { "type": "Point", "coordinates": [ -82.647673, 35.272696 ] } },
{ "type": "Feature", "properties": { "TYPE": "Public", "NAME": "Brevard Academy", "STREET": "1110 Hendersonville Highway", "CITY": "Pisgah Forest", "ZIP": "28768", "NMCNTY": "Transylvania County", "TOTAL": "14", "LAT": 35.269194, "LON": -82.685369 }, "geometry": { "type": "Point", "coordinates": [ -82.685369, 35.269194 ] } },
{ "type": "Feature", "properties": { "TYPE": "Public", "NAME": "Pisgah Forest Elementary", "STREET": "1076 Ecusta Rd", "CITY": "Brevard", "ZIP": "28712", "NMCNTY": "Transylvania County", "TOTAL": "14", "LAT": 35.2563, "LON": -82.704 }, "geometry": { "type": "Point", "coordinates": [ -82.704, 35.2563 ] } },
{ "type": "Feature", "properties": { "TYPE": "Public", "NAME": "Brevard Elementary", "STREET": "399 Greenville Hwy", "CITY": "Brevard", "ZIP": "28712", "NMCNTY": "Transylvania County", "TOTAL": "14", "LAT": 35.22517, "LON": -82.722177 }, "geometry": { "type": "Point", "coordinates": [ -82.722177, 35.22517 ] } },
{ "type": "Feature", "properties": { "TYPE": "Public", "NAME": "Brevard High", "STREET": "609 N. Country Club Rd", "CITY": "Brevard", "ZIP": "28712", "NMCNTY": "Transylvania County", "TOTAL": "14", "LAT": 35.2172, "LON": -82.7356 }, "geometry": { "type": "Point", "coordinates": [ -82.7356, 35.2172 ] } },
{ "type": "Feature", "properties": { "TYPE": "Public", "NAME": "Brevard Middle", "STREET": "400 Fisher Rd", "CITY": "Brevard", "ZIP": "28712", "NMCNTY": "Transylvania County", "TOTAL": "14", "LAT": 35.2462, "LON": -82.7287 }, "geometry": { "type": "Point", "coordinates": [ -82.7287, 35.2462 ] } },
{ "type": "Feature", "properties": { "TYPE": "Public", "NAME": "Rosman Elementary", "STREET": "167 Rosman School Rd", "CITY": "Rosman", "ZIP": "28772", "NMCNTY": "Transylvania County", "TOTAL": "14", "LAT": 35.143806, "LON": -82.827424 }, "geometry": { "type": "Point", "coordinates": [ -82.827424, 35.143806 ] } },
{ "type": "Feature", "properties": { "TYPE": "Public", "NAME": "Rosman High", "STREET": "749 Pickens Hwy", "CITY": "Rosman", "ZIP": "28772", "NMCNTY": "Transylvania County", "TOTAL": "14", "LAT": 35.1433, "LON": -82.8205 }, "geometry": { "type": "Point", "coordinates": [ -82.8205, 35.1433 ] } },
{ "type": "Feature", "properties": { "TYPE": "Public", "NAME": "T C Henderson", "STREET": "11839 Rosman Hwy", "CITY": "Lake Toxaway", "ZIP": "28747", "NMCNTY": "Transylvania County", "TOTAL": "14", "LAT": 35.12895, "LON": -82.88747 }, "geometry": { "type": "Point", "coordinates": [ -82.88747, 35.12895 ] } },
{ "type": "Feature", "properties": { "TYPE": "Public", "NAME": "Davidson River School", "STREET": "970 Ecusta Rd", "CITY": "Brevard", "ZIP": "28712", "NMCNTY": "Transylvania County", "TOTAL": "14", "LAT": 35.2581, "LON": -82.7042 }, "geometry": { "type": "Point", "coordinates": [ -82.7042, 35.2581 ] } },
{ "type": "Feature", "properties": { "TYPE": "Public", "NAME": "Rosman Middle", "STREET": "2770 Old Rosman Hwy", "CITY": "Rosman", "ZIP": "28772", "NMCNTY": "Transylvania County", "TOTAL": "14", "LAT": 35.142836, "LON": -82.820375 }, "geometry": { "type": "Point", "coordinates": [ -82.820375, 35.142836 ] } },
{ "type": "Feature", "properties": { "TYPE": "Public", "NAME": "TCS Online Learning Path", "STREET": "225 Rosenwald Ln", "CITY": "Brevard", "ZIP": "28712", "NMCNTY": "Transylvania County", "TOTAL": "14", "LAT": 35.236671, "LON": -82.742885 }, "geometry": { "type": "Point", "coordinates": [ -82.742885, 35.236671 ] } },
{ "type": "Feature", "properties": { "TYPE": "PostSecondary", "NAME": "Brevard College", "STREET": "One Brevard College Drive", "CITY": "Brevard", "ZIP": "28712", "NMCNTY": "Transylvania County", "TOTAL": "14", "LAT": 35.236763, "LON": -82.729494 }, "geometry": { "type": "Point", "coordinates": [ -82.729494, 35.236763 ] } },
{ "type": "Feature", "properties": { "TYPE": "Public", "NAME": "Two Rivers Community School", "STREET": "1018 Archie Carroll Road", "CITY": "Boone", "ZIP": "28607", "NMCNTY": "Watauga County", "TOTAL": "4", "LAT": 36.226977, "LON": -81.61478 }, "geometry": { "type": "Point", "coordinates": [ -81.61478, 36.226977 ] } },
{ "type": "Feature", "properties": { "TYPE": "Public", "NAME": "Watauga Virtual Academy", "STREET": "175 Pioneer Trail", "CITY": "Boone", "ZIP": "28607", "NMCNTY": "Watauga County", "TOTAL": "4", "LAT": 36.229723, "LON": -81.660481 }, "geometry": { "type": "Point", "coordinates": [ -81.660481, 36.229723 ] } },
{ "type": "Feature", "properties": { "TYPE": "PostSecondary", "NAME": "Appalachian State University", "STREET": "287 Rivers St", "CITY": "Boone", "ZIP": "28608", "NMCNTY": "Watauga County", "TOTAL": "4", "LAT": 36.215536, "LON": -81.680583 }, "geometry": { "type": "Point", "coordinates": [ -81.680583, 36.215536 ] } },
{ "type": "Feature", "properties": { "TYPE": "PostSecondary", "NAME": "Jung Tao School of Classical Chinese Medicine", "STREET": "207 Dale Adams Road", "CITY": "Sugar Grove", "ZIP": "28679-9657", "NMCNTY": "Watauga County", "TOTAL": "4", "LAT": 36.263233, "LON": -81.785303 }, "geometry": { "type": "Point", "coordinates": [ -81.785303, 36.263233 ] } },
{ "type": "Feature", "properties": { "TYPE": "Private", "NAME": "HARVEST TIME CHRISTIAN ACADEMY", "STREET": "398 WINSTON ST", "CITY": "WILKESBORO", "ZIP": "28697", "NMCNTY": "Wilkes County", "TOTAL": "27", "LAT": 36.152229, "LON": -81.143212 }, "geometry": { "type": "Point", "coordinates": [ -81.143212, 36.152229 ] } },
{ "type": "Feature", "properties": { "TYPE": "Private", "NAME": "MILLERS CREEK CHRISTIAN SCHOOL", "STREET": "5100 BOONE TRL", "CITY": "MILLERS CREEK", "ZIP": "28651", "NMCNTY": "Wilkes County", "TOTAL": "27", "LAT": 36.187826, "LON": -81.233613 }, "geometry": { "type": "Point", "coordinates": [ -81.233613, 36.187826 ] } },
{ "type": "Feature", "properties": { "TYPE": "Private", "NAME": "ECKERD - BOOMER CAMPUS", "STREET": "4654 HIGH ROCK RD", "CITY": "BOOMER", "ZIP": "28606", "NMCNTY": "Wilkes County", "TOTAL": "27", "LAT": 36.050814, "LON": -81.328244 }, "geometry": { "type": "Point", "coordinates": [ -81.328244, 36.050814 ] } },
{ "type": "Feature", "properties": { "TYPE": "Public", "NAME": "Bridges Academy", "STREET": "2587 Pleasant Ridge Road", "CITY": "State Road", "ZIP": "28676", "NMCNTY": "Wilkes County", "TOTAL": "27", "LAT": 36.3148, "LON": -80.8849 }, "geometry": { "type": "Point", "coordinates": [ -80.8849, 36.3148 ] } },
{ "type": "Feature", "properties": { "TYPE": "Public", "NAME": "Boomer-Ferguson Elementary School", "STREET": "556 Boomer-Ferguson Sch Rd", "CITY": "Boomer", "ZIP": "28606", "NMCNTY": "Wilkes County", "TOTAL": "27", "LAT": 36.1012, "LON": -81.2978 }, "geometry": { "type": "Point", "coordinates": [ -81.2978, 36.1012 ] } },
{ "type": "Feature", "properties": { "TYPE": "Public", "NAME": "C B Eller Elementary School", "STREET": "1288 CB Eller School Rd", "CITY": "Elkin", "ZIP": "28621", "NMCNTY": "Wilkes County", "TOTAL": "27", "LAT": 36.2766, "LON": -80.8886 }, "geometry": { "type": "Point", "coordinates": [ -80.8886, 36.2766 ] } },
{ "type": "Feature", "properties": { "TYPE": "Public", "NAME": "C C Wright Elementary School", "STREET": "200 CC Wright School Rd", "CITY": "North Wilkesboro", "ZIP": "28659", "NMCNTY": "Wilkes County", "TOTAL": "27", "LAT": 36.1379, "LON": -81.1054 }, "geometry": { "type": "Point", "coordinates": [ -81.1054, 36.1379 ] } },
{ "type": "Feature", "properties": { "TYPE": "Public", "NAME": "East Wilkes High School", "STREET": "13315 Elkin Hwy 268", "CITY": "Ronda", "ZIP": "28670", "NMCNTY": "Wilkes County", "TOTAL": "27", "LAT": 36.2264, "LON": -80.9276 }, "geometry": { "type": "Point", "coordinates": [ -80.9276, 36.2264 ] } },
{ "type": "Feature", "properties": { "TYPE": "Public", "NAME": "Moravian Falls Elementary School", "STREET": "2001 Moravian Falls Rd", "CITY": "Moravian Falls", "ZIP": "28654", "NMCNTY": "Wilkes County", "TOTAL": "27", "LAT": 36.0975, "LON": -81.1805 }, "geometry": { "type": "Point", "coordinates": [ -81.1805, 36.0975 ] } },
{ "type": "Feature", "properties": { "TYPE": "Public", "NAME": "Mount Pleasant Elementary School", "STREET": "532 Champion Mt Pleasant Rd", "CITY": "Ferguson", "ZIP": "28624", "NMCNTY": "Wilkes County", "TOTAL": "27", "LAT": 36.1491, "LON": -81.3256 }, "geometry": { "type": "Point", "coordinates": [ -81.3256, 36.1491 ] } },
{ "type": "Feature", "properties": { "TYPE": "Public", "NAME": "Mountain View Elementary School", "STREET": "5464 Mountain View Rd", "CITY": "Hays", "ZIP": "28635", "NMCNTY": "Wilkes County", "TOTAL": "27", "LAT": 36.2485, "LON": -81.1161 }, "geometry": { "type": "Point", "coordinates": [ -81.1161, 36.2485 ] } },
{ "type": "Feature", "properties": { "TYPE": "Public", "NAME": "Mulberry Elementary School", "STREET": "190 Mulberry School Rd", "CITY": "North Wilkesboro", "ZIP": "28659", "NMCNTY": "Wilkes County", "TOTAL": "27", "LAT": 36.2372, "LON": -81.1798 }, "geometry": { "type": "Point", "coordinates": [ -81.1798, 36.2372 ] } },
{ "type": "Feature", "properties": { "TYPE": "Public", "NAME": "North Wilkes High School", "STREET": "2986 Traphill Rd", "CITY": "Hays", "ZIP": "28635", "NMCNTY": "Wilkes County", "TOTAL": "27", "LAT": 36.2826, "LON": -81.0987 }, "geometry": { "type": "Point", "coordinates": [ -81.0987, 36.2826 ] } },
{ "type": "Feature", "properties": { "TYPE": "Public", "NAME": "North Wilkesboro Elementary School", "STREET": "200 Flint Hill Rd", "CITY": "North Wilkesboro", "ZIP": "28659", "NMCNTY": "Wilkes County", "TOTAL": "27", "LAT": 36.1778, "LON": -81.1385 }, "geometry": { "type": "Point", "coordinates": [ -81.1385, 36.1778 ] } },
{ "type": "Feature", "properties": { "TYPE": "Public", "NAME": "Roaring River Elementary School", "STREET": "283 White Plains Rd", "CITY": "Roaring River", "ZIP": "28669", "NMCNTY": "Wilkes County", "TOTAL": "27", "LAT": 36.2087, "LON": -81.0038 }, "geometry": { "type": "Point", "coordinates": [ -81.0038, 36.2087 ] } },
{ "type": "Feature", "properties": { "TYPE": "Public", "NAME": "Ronda-Clingman Elementary School", "STREET": "316 Ronda-Clingman School Rd", "CITY": "Ronda", "ZIP": "28670", "NMCNTY": "Wilkes County", "TOTAL": "27", "LAT": 36.2048, "LON": -80.9375 }, "geometry": { "type": "Point", "coordinates": [ -80.9375, 36.2048 ] } },
{ "type": "Feature", "properties": { "TYPE": "Public", "NAME": "Traphill Elementary School", "STREET": "9794 Traphill Rd", "CITY": "Traphill", "ZIP": "28685", "NMCNTY": "Wilkes County", "TOTAL": "27", "LAT": 36.3463, "LON": -81.0295 }, "geometry": { "type": "Point", "coordinates": [ -81.0295, 36.3463 ] } },
{ "type": "Feature", "properties": { "TYPE": "Public", "NAME": "West Wilkes High School", "STREET": "6598 Boone Trail", "CITY": "Millers Creek", "ZIP": "28651", "NMCNTY": "Wilkes County", "TOTAL": "27", "LAT": 36.185679, "LON": -81.259411 }, "geometry": { "type": "Point", "coordinates": [ -81.259411, 36.185679 ] } },
{ "type": "Feature", "properties": { "TYPE": "Public", "NAME": "Wilkes Central High School", "STREET": "1179 Moravian Falls Rd", "CITY": "Wilkesboro", "ZIP": "28697", "NMCNTY": "Wilkes County", "TOTAL": "27", "LAT": 36.1099, "LON": -81.1785 }, "geometry": { "type": "Point", "coordinates": [ -81.1785, 36.1099 ] } },
{ "type": "Feature", "properties": { "TYPE": "Public", "NAME": "Wilkesboro Elementary School", "STREET": "1248 School St", "CITY": "Wilkesboro", "ZIP": "28697", "NMCNTY": "Wilkes County", "TOTAL": "27", "LAT": 36.1328, "LON": -81.1767 }, "geometry": { "type": "Point", "coordinates": [ -81.1767, 36.1328 ] } },
{ "type": "Feature", "properties": { "TYPE": "Public", "NAME": "Central Wilkes Middle School", "STREET": "3541 South NC Hwy 16", "CITY": "Moravian Falls", "ZIP": "28654", "NMCNTY": "Wilkes County", "TOTAL": "27", "LAT": 36.0941, "LON": -81.1775 }, "geometry": { "type": "Point", "coordinates": [ -81.1775, 36.0941 ] } },
{ "type": "Feature", "properties": { "TYPE": "Public", "NAME": "East Wilkes Middle School", "STREET": "2202 Macedonia Church Road", "CITY": "Ronda", "ZIP": "28670", "NMCNTY": "Wilkes County", "TOTAL": "27", "LAT": 36.2469, "LON": -80.9322 }, "geometry": { "type": "Point", "coordinates": [ -80.9322, 36.2469 ] } },
{ "type": "Feature", "properties": { "TYPE": "Public", "NAME": "Millers Creek Elementary School", "STREET": "4320 North NC Hwy 16", "CITY": "Millers Creek", "ZIP": "28651", "NMCNTY": "Wilkes County", "TOTAL": "27", "LAT": 36.207, "LON": -81.244 }, "geometry": { "type": "Point", "coordinates": [ -81.244, 36.207 ] } },
{ "type": "Feature", "properties": { "TYPE": "Public", "NAME": "North Wilkes Middle School", "STREET": "2776 Yellow Banks Road", "CITY": "North Wilkesboro", "ZIP": "28659", "NMCNTY": "Wilkes County", "TOTAL": "27", "LAT": 36.2615, "LON": -81.1506 }, "geometry": { "type": "Point", "coordinates": [ -81.1506, 36.2615 ] } },
{ "type": "Feature", "properties": { "TYPE": "Public", "NAME": "West Wilkes Middle School", "STREET": "1677 North NC Hwy 16", "CITY": "Wilkesboro", "ZIP": "28697", "NMCNTY": "Wilkes County", "TOTAL": "27", "LAT": 36.1694, "LON": -81.2413 }, "geometry": { "type": "Point", "coordinates": [ -81.2413, 36.1694 ] } },
{ "type": "Feature", "properties": { "TYPE": "Public", "NAME": "Wilkes Early College High School", "STREET": "1328 S Collegiate Dr", "CITY": "Wilkesboro", "ZIP": "28697", "NMCNTY": "Wilkes County", "TOTAL": "27", "LAT": 36.135958, "LON": -81.184403 }, "geometry": { "type": "Point", "coordinates": [ -81.184403, 36.135958 ] } },
{ "type": "Feature", "properties": { "TYPE": "PostSecondary", "NAME": "Wilkes Community College", "STREET": "1328 South Collegiate Dr", "CITY": "Wilkesboro", "ZIP": "28697", "NMCNTY": "Wilkes County", "TOTAL": "27", "LAT": 36.136617, "LON": -81.182994 }, "geometry": { "type": "Point", "coordinates": [ -81.182994, 36.136617 ] } },
{ "type": "Feature", "properties": { "TYPE": "Private", "NAME": "ARTHUR MORGAN SCHOOL", "STREET": "60 AMS CIR", "CITY": "BURNSVILLE", "ZIP": "28714", "NMCNTY": "Yancey County", "TOTAL": "10", "LAT": 35.821439, "LON": -82.185674 }, "geometry": { "type": "Point", "coordinates": [ -82.185674, 35.821439 ] } },
{ "type": "Feature", "properties": { "TYPE": "Private", "NAME": "GENESIS ACADEMY, INC.", "STREET": "128 GEORGES FORK RD", "CITY": "BURNSVILLE", "ZIP": "28714", "NMCNTY": "Yancey County", "TOTAL": "10", "LAT": 35.909361, "LON": -82.259758 }, "geometry": { "type": "Point", "coordinates": [ -82.259758, 35.909361 ] } },
{ "type": "Feature", "properties": { "TYPE": "Private", "NAME": "YANCEY COUNTY CHRISTIAN SCHOOL", "STREET": "694 PINE SWAMP RD", "CITY": "BURNSVILLE", "ZIP": "28714", "NMCNTY": "Yancey County", "TOTAL": "10", "LAT": 35.907656, "LON": -82.33017 }, "geometry": { "type": "Point", "coordinates": [ -82.33017, 35.907656 ] } },
{ "type": "Feature", "properties": { "TYPE": "Public", "NAME": "Burnsville Elementary", "STREET": "395 Burnsville School Road", "CITY": "Burnsville", "ZIP": "28714", "NMCNTY": "Yancey County", "TOTAL": "10", "LAT": 35.9172, "LON": -82.26 }, "geometry": { "type": "Point", "coordinates": [ -82.26, 35.9172 ] } },
{ "type": "Feature", "properties": { "TYPE": "Public", "NAME": "Cane River Middle", "STREET": "1128 Cane River School Road", "CITY": "Burnsville", "ZIP": "28714", "NMCNTY": "Yancey County", "TOTAL": "10", "LAT": 35.9122, "LON": -82.3777 }, "geometry": { "type": "Point", "coordinates": [ -82.3777, 35.9122 ] } },
{ "type": "Feature", "properties": { "TYPE": "Public", "NAME": "East Yancey Middle", "STREET": "285 Georges Fork Road", "CITY": "Burnsville", "ZIP": "28714", "NMCNTY": "Yancey County", "TOTAL": "10", "LAT": 35.9114, "LON": -82.258 }, "geometry": { "type": "Point", "coordinates": [ -82.258, 35.9114 ] } },
{ "type": "Feature", "properties": { "TYPE": "Public", "NAME": "Micaville Elementary", "STREET": "112 State Hwy 80 South", "CITY": "Burnsville", "ZIP": "28714", "NMCNTY": "Yancey County", "TOTAL": "10", "LAT": 35.9053, "LON": -82.2163 }, "geometry": { "type": "Point", "coordinates": [ -82.2163, 35.9053 ] } },
{ "type": "Feature", "properties": { "TYPE": "Public", "NAME": "Mountain Heritage High", "STREET": "333 Mtn Heritage HS Road", "CITY": "Burnsville", "ZIP": "28714", "NMCNTY": "Yancey County", "TOTAL": "10", "LAT": 35.908, "LON": -82.3336 }, "geometry": { "type": "Point", "coordinates": [ -82.3336, 35.908 ] } },
{ "type": "Feature", "properties": { "TYPE": "Public", "NAME": "South Toe Elementary", "STREET": "139 South Toe School Rd", "CITY": "Burnsville", "ZIP": "28714", "NMCNTY": "Yancey County", "TOTAL": "10", "LAT": 35.8405, "LON": -82.1881 }, "geometry": { "type": "Point", "coordinates": [ -82.1881, 35.8405 ] } },
{ "type": "Feature", "properties": { "TYPE": "Public", "NAME": "Blue Ridge Elementary", "STREET": "910 Cane River School Rd", "CITY": "Burnsville", "ZIP": "28714", "NMCNTY": "Yancey County", "TOTAL": "10", "LAT": 35.913805, "LON": -82.372795 }, "geometry": { "type": "Point", "coordinates": [ -82.372795, 35.913805 ] } }
]
}
